Address,Latitude,Longitude
"418 W. Heron St Aberdeen, WA 98520 US",46.9713259,-123.8217119
"2202 State Rt 530 NE Arlington, WA 98223 US",48.1874245,-122.2004908
"521 Auburn Way S Auburn, WA 98002 US",47.3070387,-122.2257087
"2233 148th Ave NE Bellevue, WA 98007 US",47.6303526,-122.1435149
"161 Telegraph Rd. Bellingham, WA 98226 US",48.7841271,-122.4855916
"20805 State Route 410 E Bonney Lake, WA 98391 US",47.1676291,-122.152121
"5004 Kitsap Way Bremerton, WA 98312 US",47.5792748,-122.7032017
"1052A Harrison Ave Centralia, WA 98531 US",46.7241829,-122.9718913
"118 Interstate Ave Chehalis, WA 98532 US",46.6461244,-122.9566425
"8431 244th St. SW Edmonds, WA 98026 US",47.778413,-122.347208
"132 128 St SW Everett, WA 98204 US",47.8816251,-122.2359358
"2903 Pacific Ave. Everett, WA 98201 US",47.9770132,-122.1920389
"2132 S 320th St. Federal Way, WA 98003 US",47.31552495,-122.3054825
"34726 S 16th Federal Way, WA 98003 US",47.2901076,-122.3128569
"5110 Pacific Hwy E Fife, WA 98424 US",47.243101,-122.370507
"110 Kelso Dr Kelso, WA 98626 US",46.1068655,-122.8773513
"2801 W Kennewick Ave Kennewick, WA 99336 US",46.2096435,-119.1693845
"1246 North Central Ave. Kent, WA 98032 US",47.3971561,-122.2273811
"108 College Street SE Lacey, WA 98516 US",47.0483435,-122.8231451
"4109 196th Place Lynnwood, WA 98036 US",47.8213598,-122.2887203
"18824 State Rt 2 Monroe, WA 98272 US",47.8605168,-121.9778479
"1590 E Yonezawa Blvd Moses Lake, WA 98837 US",47.1056263,-119.2526749
"100 East College Way Mt. Vernon, WA 98273 US",48.4354402,-122.3393027
"626 S Hill Park Dr Puyallup, WA 98373 US",47.1605665,-122.3003261
"4750 NE Lk Washington Renton, WA 98056 US",47.5339478,-122.195543
"1301A George Washington Way Richland, WA 99354 US",46.2643494,-119.267723
"17206 Pacific Hwy Seatac, WA 98188 US",47.448744,-122.296105
"18623 Pacific Hwy South Seatac, WA 98188 US",47.4370099,-122.2957918
"14821 First Ave. South Seattle, WA 98168 US",47.4698691,-122.3342102
"2762 4th Avenue S Seattle, WA 98134 US",47.5928389,-122.3290626
"301 E Wallace-Kneeland Blvd Shelton, WA 98584 US",47.2312631,-123.1208939
"20420 Mountain Highway Spanaway, WA 98387 US",47.0714581,-122.4197093
"2022 N Argonne Rd Spokane, WA 99212 US",47.6730321,-117.282788
"3525 N Division St Spokane, WA 99207 US",47.6904305,-117.4117242
"3711 S Geiger Blvd Spokane, WA 99224 US",47.6205271,-117.5056288
"6 N Pines Rd Spokane, WA 99206 US",47.6725654,-117.2395807
"10802 Pacific Ave. South Tacoma, WA 98444 US",47.1589902,-122.4348869
"11755 Pacific Highway Tacoma, WA 98499 US",47.1494649,-122.503299
"5924 6th Ave Tacoma, WA 98406 US",47.2551722,-122.5174893
"6112 100th St SW Tacoma, WA 98499 US",47.1663452,-122.5193329
"8614 S Hosmer Tacoma, WA 98444 US",47.1787639,-122.4641364
"2603 Rudkin Rd Union Gap, WA 98903 US",46.5606621,-120.475253
"1337 N Wenatchee Ave Wenatchee, WA 98801 US",47.4489202,-120.3312195
"3470 West College Avenue Appleton, WI 54914 US",44.2625029,-88.4582328
"780 Hwy 54 Black River Falls, WI 54615 US",44.2944259,-90.856948
"2894 S. Oneida Street Green Bay, WI 54303 US",44.517044,-88.0465815
"4695 S. 108th St. Greenfield, WI 53228 US",42.9736196,-88.0477187
"1000 Gateway Blvd Hudson, WI 54016 US",44.9587514,-92.7226278
"2020 Milton Ave Janesville, WI 53545 US",42.7221199,-88.9954948
"1090 Wisconsin Dells Pkwy S Lake Delton, WI 53940 US",43.5765607,-89.77954065
"1798 Thierer Road Madison, WI 53704 US",43.122563,-89.312845
"433 S. Gammon Road Madison, WI 53719 US",43.0582427,-89.5021464
"611 Gateway Avenue Mauston, WI 53948 US",43.7965178,-90.0579675
"1827 N. Broadway St Menomonie, WI 54751 US",44.9037695,-91.9327509
"3801 S 27th Street Milwaukee, WI 53221 US",42.9412405,-87.9490038
"4925 S. Howell Avenue Milwaukee, WI 53207 US",42.9780557,-87.9094992
"7822 W Capitol Dr Milwaukee, WI 53222 US",43.0902786,-88.0103215
"8001 W. Brown Deer Road Milwaukee, WI 53223 US",43.1777101,-88.0361418
"1201 E Broadway Monona, WI 53716 US",43.0481621,-89.308667
"9650 South 20th Street Oak Creek, WI 53154 US",42.8712058,-87.9410744
"2801 N. Grandview Boulevard Pewaukee, WI 53072 US",43.042908,-88.2552601
"5501 Washington Avenue Racine, WI 53406 US",42.7189119,-87.8799338
"1500 County Hwy Xx Rothschild, WI 54474 US",44.86339165,-89.63767738
"310 E Mccoy Blvd Tomah, WI 54660 US",44.0192085,-90.5019481
"11155 West North Avenue Wauwatosa, WI 53226 US",43.0604876,-88.0274694
"531 Hwy 128 Wilson, WI 54027 US",44.9354619,-92.1952715
"600 S Frontage Rd Wisconsin Dells, WI 53965 US",43.6229078,-89.7942624
"489 Emily Dr Clarksburg, WV 26301 US",39.2709897,-80.2853771
"258 Retail Circle Morgantown, WV 26508 US",39.5805246,-79.9570935
"205 Lewers St Honolulu, HI 96815 US",21.2784813,-157.8315343
"75-1027 Henry St Kailua-Kona, HI 96740 US",19.64664,-155.989906
"45-480 Kaneohe Bay Drive Ste B1 Kaneohe, HI 96744 US",21.4015596,-157.7988848
"4470 Kapolei Parkway Ste 800 Kapolei, HI 96707 US",21.3293097,-158.0923151
"94-305 Kunia Road Waipahu, HI 96797 US",21.3883263,-158.034524
"255 E. Altamonte Dr. Altamonte Springs, FL 32701 US",28.6619753,-81.383211
"351 E. Main St. Apopka, FL 32703 US",28.6735515,-81.5037658
"12105 US Highway 19 N Bayonet Point, FL 34667 US",28.332718,-82.6999364
"1311 W Palmetto Park Boca Raton, FL 33486 US",26.351432,-80.11257
"3249 N Federal Hwy Boca Raton, FL 33431 US",26.3800893,-80.076849
"610 44th Ave W Bradenton, FL 34207 US",27.4627161,-82.5685109
"1301 W. Brandon Blvd Brandon, FL 33511 US",27.9404935,-82.3269592
"1306 Del Prado Blvd Cape Coral, FL 33990 US",26.628172,-81.9413149
"198 Semoran Blvd Casselberry, FL 32707 US",28.6592367,-81.3380028
"25 Town Center Blvd Clermont, FL 34711 US",28.3477029,-81.6636097
"1245 N. Atlantic Ave. Cocoa Beach, FL 32931 US",28.3319881,-80.6111526
"1 Miracle Mile Coral Gables, FL 33134 US",25.750033,-80.2552483
"1150 South Dixie Highway Coral Gables, FL 33146 US",25.715658,-80.2751148
"2380 NW Hwy 19 Crystal River, FL 34428 US",28.9186173,-82.6107346
"44111 S US 27 Davenport, FL 33837 US",28.235651,-81.6510488
"5645 South University Dr. Davie, FL 33328 US",26.0648186,-80.2523272
"2701 N. Atlantic Ave. Daytona Beach, FL 32118 US",29.2282732,-81.0089819
"3162 S Atlantic Ave Daytona Beach, FL 32118 US",29.2236944,-81.0067367
"1206 N. Woodland Blvd. Deland, FL 32720 US",29.0490882,-81.3045306
"1910 South McCall Rd. Englewood, FL 34223 US",26.9382672,-82.3351413
"16150 US Hwy 441 Eustis, FL 32726 US",28.8227805,-81.6889692
"401 SE 1st Ave Florida City, FL 33034 US",25.4435315,-80.4745523
"100 N. Kings Highway Fort Pierce, FL 34945 US",27.4487622,-80.3982494
"1661 S Federal Hwy Ft Lauderdale, FL 33316 US",26.1007016,-80.1371564
"3151 NW 9th Ave Ft Lauderdale, FL 33309 US",26.2031505,-80.1558541
"8031 Summerlin Center Road Ft Myers, FL 33907 US",26.5221068,-81.889085
"9340 Marketplace Rd Ft Myers, FL 33912 US",26.548431,-81.801049
"5000 N.Federal Hwy Ft. Lauderdale, FL 33308 US",26.1899943,-80.1142015
"543 Eglin Parway Ne Ft. Walton Beach, FL 32547 US",30.4397743,-86.599364
"35649 US Hwy 27 North Haines City, FL 33844 US",28.1180508,-81.6396142
"1025 W Hallandale Bch Blvd Hallandale Beach, FL 33009 US",25.9850809,-80.1642653
"1000 W 49th St Hialeah, FL 33012 US",25.8666634,-80.3122041
"11701 Okeechobee Rd Hialeah Gardens, FL 33018 US",25.900121,-80.3847639
"2541 N. 29th Avenue Hollywood, FL 33021 US",26.0327402,-80.1657771
"404 S 60th Ave Hollywood, FL 33023 US",26.007793,-80.2079643
"10445 Atlantic Blvd Jacksonville, FL 32225 US",30.3193237,-81.4888016
"1071 Airport Road Jacksonville, FL 32218 US",30.4829962,-81.6523758
"13874 Beach Blvd Jacksonville, FL 32224 US",30.2877171,-81.4636349
"8215 Dix Ellis Trail Jacksonville, FL 32256 US",30.2202678,-81.573236
"8409 Blanding Blvd. Jacksonville, FL 32244 US",30.2262414,-81.7378844
"97630 Overseas Hwy Key Largo, FL 33037 US",25.075058,-80.4618469
"2710 N Roosevelt Blvd Key West, FL 33040 US",24.5581489,-81.7879469
"925 Duval St Key West, FL 33040 US",24.5513438,-81.79916011
"1515 E Osceola Parkway Kissimmee, FL 34744 US",28.3406086,-81.3886994
"2051 E. Irlo Bronson Kissimmee, FL 34744 US",28.2908824,-81.3603258
"2509 W. Vine Street Kissimmee, FL 34741 US",28.3049594,-81.42979115
"4783 W. Irlo Bronson Hwy Kissimmee, FL 34746 US",28.3298342,-81.4719196
"5855 W. Irlo Bronson Kissimmee, FL 34746 US",28.3334913,-81.5182931
"7631 W. Irlo Bronson Kissimmee, FL 34747 US",28.337004,-81.592162
"176 NW Centurion Court Lake City, FL 32055 US",30.1805306,-82.6904878
"4541 Macey Lane Lake Wales, FL 33853 US",27.9645479,-81.6252908
"4541 Hypoluxo Road Lake Worth, FL 33463 US",26.5725059,-80.1143209
"3204 N. US Hwy 98 Lakeland, FL 33805 US",28.0821138,-81.9678518
"4325 S Florida Ave Lakeland, FL 33813 US",28.041698,-81.957183
"940 Missouri Ave. Largo, FL 33770 US",27.9251303,-82.7872274
"2480 Citrus Blvd Leesburg, FL 34748 US",28.8431024,-81.8961986
"6190 S State Rd 53 Madison, FL 32340 US",30.4010065,-83.3611405
"650 N. State Road #7 Margate, FL 33063 US",26.2379585,-80.2044017
"4530 W. New Haven Melbourne, FL 32904 US",28.079249,-80.7030867
"75 E. Merritt Island Causeway Merritt Island, FL 32952 US",28.3565465,-80.6986627
"11350 NW 41st St Miami, FL 33178 US",25.81118,-80.38066564
"12000 N Kendall Drive Miami, FL 33186 US",25.6855724,-80.3912446
"15235 SW 137th Ave Miami, FL 33177 US",25.7483478,-80.4165467
"19313 So Dixie Hgwy Miami, FL 33157 US",25.5884633,-80.3594238
"3600 Biscayne Blvd Miami, FL 33137 US",25.81089035,-80.18974495
"3850 SW 137th Ave Miami, FL 33175 US",25.7452059,-80.4164057
"5825 NW 36th St Miami, FL 33166 US",25.8092146,-80.3251166
"7411 NW 36th St Miami, FL 33166 US",25.8092146,-80.3251166
"8503 SW 40th St Miami, FL 33155 US",25.7326342,-80.3517291
"9545 W Flagler St Miami, FL 33174 US",25.7684916,-80.3690871
"7140 Collins Avenue Miami Beach, FL 33141 US",25.85698425,-80.12075723
"19780 NW 27th Avenue Miami Gardens, FL 33056 US",25.9614927,-80.2466516
"18600 NW 67th Ave Miami Lakes, FL 33015 US",25.9363149,-80.307545
"32670 Blue Star Hwy Midway, FL 32343 US",30.4874333,-84.4241476
"4442 US Hwy 19 S New Port Richey, FL 34652 US",28.2241116,-82.7332397
"1830 State Rd 44 New Smyrna Beach, FL 32168 US",29.0139174,-80.9427413
"12105 Biscayne Blvd North Miami, FL 33181 US",25.8986289,-80.1610346
"1450 Miami Gardens Dr NE North Miami, FL 33179 US",25.9444784,-80.1719478
"911 E Commercial Blvd Oakland Park, FL 33334 US",26.188596,-80.143022
"3801 West Silver Springs Blvd. Ocala, FL 34482 US",29.1869486,-82.1860754
"11261 W Colonial Dr Ocoee, FL 34761 US",28.5513232,-81.5594969
"1012 Saxon Blvd Orange City, FL 32763 US",28.91065935,-81.2847762
"11037 International Dr Orlando, FL 32821 US",28.4054461,-81.45541107
"11915 E Colonial Dr Orlando, FL 32825 US",28.5688012,-81.2477228
"12375 St Rd 535 Orlando, FL 32836 US",28.3850582,-81.5055229
"440 S Semoran Blvd Orlando, FL 32807 US",28.5373984,-81.3109465
"5725 Tg Lee Blvd Orlando, FL 32822 US",28.4608332,-81.309166
"5825 International Orlando, FL 32819 US",28.4633644,-81.4597196
"7660 International Orlando, FL 32819 US",28.4515135,-81.4712549
"8076 S. Orange Ave. Orlando, FL 32809 US",28.421174,-81.371429
"8243 S John Young Pkwy Orlando, FL 32819 US",28.4453158,-81.4267541
"8747 International Orlando, FL 32819 US",28.4381773,-81.4709328
"9880 International Orlando, FL 32819 US",28.4249431,-81.4623114
"110 Williamson Blvd Ormond Beach, FL 32174 US",29.2530552,-81.112177
"840 Palm Bay Rd NE Palm Bay, FL 32905 US",28.0351821,-80.6395052
"7 Kings Hwy Palm Coast, FL 32137 US",29.5551617,-81.2144215
"3000 S Congress Ave Palm Springs, FL 33461 US",26.641959,-80.0882676
"2438 Martin Luther King Blvd Panama City, FL 32405 US",30.1928778,-85.6493756
"10800 Pines Blvd. Suite #15 Pembroke Pines, FL 33026 US",26.0071845,-80.2912278
"1290 N. University Dr. Pembroke Pines, FL 33024 US",26.0200535,-80.2484935
"4625 Mobile Highway Pensacola, FL 32506 US",30.438299,-87.280192
"535 West Nine Mile Road Pensacola, FL 32534 US",30.5328943,-87.2813776
"7748 N. Davis Highway Pensacola, FL 32514 US",30.5058032,-87.22082445
"2001 S Frontage Rd Plant City, FL 33566 US",28.0352914,-82.1038187
"12100 W Sunrise Blvd Plantation, FL 33323 US",26.1449473,-80.3192165
"1727 N. University Plantation, FL 33322 US",26.1469241,-80.2576508
"840 Cypress Parkway Poinciana, FL 34759 US",28.1464069,-81.4615512
"2671 N Federal Hwy Pompano Beach, FL 33064 US",26.2639264,-80.0995021
"1340 Tamiami Trail Port Charlotte, FL 33948 US",26.9992061,-82.1224885
"1641 Dunlawton Ave Port Orange, FL 32127 US",29.1282072,-81.0043203
"10111 S US 1 Port St Lucie, FL 34952 US",27.2777063,-80.2951151
"4102 W. Blue Heron Blvd Riviera Beach, FL 33404 US",26.78391345,-80.10066275
"300 Civic Center Way Royal Palm Beach, FL 33411 US",26.705171,-80.230762
"3747 Sun City Center Blvd Ruskin, FL 33573 US",27.7114569,-82.375972
"29933 State Road 52 San Antonio, FL 33576 US",28.3267997,-82.3217944
"3771 Orlando Dr Sanford, FL 32773 US",28.7703618,-81.2803461
"3701 Bee Ridge Rd Sarasota, FL 34233 US",27.2988801,-82.4461623
"4390 US Highway 27 Sebring, FL 33870 US",27.5237268,-81.4975644
"5751 E Silver Springs Blvd Silver Springs, FL 34488 US",29.2137751,-82.0606054
"1445 Wendy Court Spring Hill, FL 34607 US",28.4540426,-82.6314316
"1300 N Ponce De Leon Blvd St. Augustine, FL 32084 US",29.9248345,-81.3256796
"2455 State Road 16 St. Augustine, FL 32084 US",29.9174881,-81.4147386
"950 State Road 206 West St. Augustine, FL 32086 US",29.7503015,-81.3445017
"4999 34th St North St. Petersburg, FL 33714 US",27.8093889,-82.6796275
"2331 S Federal Hwy Stuart, FL 34994 US",27.1772757,-80.235309
"2690 N Monroe St Tallahassee, FL 32303 US",30.4826769,-84.3090342
"875 Traditions Way Florida State University Tallahassee, FL 32306 US",30.4418044,-84.2971594
"5710 University Drive Tamarac, FL 33321 US",26.1954362,-80.2515091
"1700 E. Fowler Ave. Tampa, FL 33612 US",28.0550347,-82.440378
"2004 N Dale Mabry Hwy Tampa, FL 33607 US",27.9598714,-82.5062545
"5603 E. Hillsborough Tampa, FL 33610 US",27.9957881,-82.3923459
"1577 Bella Cruz Dr The Villages, FL 32159 US",28.9514259,-81.9573494
"3500 Chaney Hwy Titusville, FL 32780 US",28.554638,-80.8482351
"1763 Tamiami Trail Venice, FL 34293 US",27.0495069,-82.3524387
"2705 Okeechobee Blvd W Palm Beach, FL 33409 US",26.7065137,-80.0953372
"894 Cypress Garden Winter Haven, FL 33880 US",28.0036406,-81.7147874
"2684 Lee Road Winter Park, FL 32789 US",28.6057928,-81.3787233
"4220 Hospitality Ln Casper, WY 82609 US",42.8527588,-106.273181
"2250 Etchepare Dr. Cheyenne, WY 82007 US",41.0991114,-104.8535825
"1 Flying J Way Rawlins, WY 82301 US",41.7789908,-107.3102355
"650 Stagecoach Dr. Rock Springs, WY 82901 US",41.6086972,-109.2306078
"34 Gusabel Avenue Nashua, NH 03063 US",42.76521065,-71.49436264
"92 Cluff Crossing Rd Salem, NH 03079 US",42.765011,-71.218982
"1286 St Georges Ave Avenel, NJ 07001 US",40.5827244,-74.2928426
"221 US Hwy 130 Bordentown, NJ 08505 US",40.1440093,-74.7020525
"326 Slapes Corner Road Carney's Point, NJ 08069 US",39.6873415,-75.4879853
"1410 Blackwood Clementon Rd Clementon, NJ 08021 US",39.805235,-75.003839
"752 Hwy #18 East Brunswick, NJ 08816 US",40.4254748,-74.3793697
"242 E White Horse Pike Galloway, NJ 08205 US",39.4461224,-74.5294745
"2297 N 2nd Street Millville, NJ 08332 US",39.427249,-75.040025
"335 Tilton Rd Northfield, NJ 08225 US",39.3753104,-74.5533847
"5550 Route 42 Turnersville, NJ 08012 US",39.7574637,-75.0465356
"1001 W Landis Ave Vineland, NJ 08360 US",39.488477,-75.075279
"806 S. White Sands Blvd. Alamogordo, NM 88310 US",32.8824983,-105.9606822
"11261 Menaul Blvd NE Albuquerque, NM 87112 US",35.1091469,-106.5158867
"1602 Coors Road NW Albuquerque, NM 87121 US",35.1036807,-106.704989
"1620 Towne Center Lane S.E. Albuquerque, NM 87106 US",35.0589834,-106.6294089
"2400 San Mateo Blvd NE Albuquerque, NM 87110 US",35.1062289,-106.5871961
"5201 San Antonio Drive Albuquerque, NM 87109 US",35.160562,-106.5855988
"9911 Avalon Rd NW Albuquerque, NM 87121 US",35.0793683,-106.7457342
"254 US 550 Bernalillo, NM 87004 US",35.3179135,-106.5430695
"810 W Pierce St Carlsbad, NM 88220 US",32.436018,-104.2363633
"4000 N Prince Street Clovis, NM 88101 US",34.3994848,-103.1965703
"120 N Platinum Ave. Deming, NM 88030 US",32.2698922,-107.7566978
"60 State Road 344 Edgewood, NM 87015 US",35.0699334,-106.1908816
"600 Scott Ave Farmington, NM 87401 US",36.7298924,-108.1899982
"3810 E Hwy 66 Gallup, NM 87301 US",35.5314681,-108.6668563
"836 N US 491 Gallup, NM 87301 US",35.5341179,-108.7577411
"1700 Sidney Dr Grants, NM 87020 US",35.1263126,-107.827242
"5114 N. Lovington Highway Hobbs, NM 88240 US",32.72673,-103.1477474
"1 Giant Crossing Jamestown, NM 87347 US",35.48085,-108.4323802
"3901 Bataan Memorial Hwy West Las Cruces, NM 88012 US",32.3715743,-106.7423503
"740 S. Main St. Las Cruces, NM 88001 US",32.3038794,-106.7778777
"11 Old Highway 70 Lordsburg, NM 88045 US",32.341145,-108.677489
"1875 Emilio Lopez Loop Los Lunas, NM 87031 US",34.81440725,-106.75792
"430 Clayton Rd Raton, NM 87740 US",36.8850092,-104.4314365
"2200 N Main St Roswell, NM 88201 US",33.4359691,-104.5230504
"26137 W. Hwy 70 Ruidoso Downs, NM 88346 US",33.3256525,-105.6236885
"3004 Cerrillos Rd Santa Fe, NM 87507 US",35.6330816,-106.020873
"2255 N Date St Truth Or Consequences, NM 87901 US",33.1558216,-107.2487332
"2021 S Mountain Rd Tucumcari, NM 88401 US",35.158341,-103.7038892
"120 East I-20 Abilene, TX 79601 US",32.4911886,-99.7224046
"3314 South Clack Street Abilene, TX 79606 US",32.408662,-99.770288
"209 Central Expressway N. Allen, TX 75013 US",33.102178,-96.67882
"1710 I-40 East Amarillo, TX 79103 US",35.1918385,-101.8183635
"2116 S Georgia St Amarillo, TX 79109 US",35.1907985,-101.8665342
"9601 I-40 East Exit 76 Amarillo, TX 79111 US",35.19376,-101.723442
"3001 Mountain Pass Blvd Anthony, TX 79821 US",31.9968529,-106.5799931
"4820 W Sublett Road Arlington, TX 76017 US",32.6486584,-97.1573109
"4928 S. Cooper Arlington, TX 76017 US",32.6659517,-97.1347531
"839 N. Watson Road Arlington, TX 76011 US",32.7585252,-97.0637683
"1601 IH35 N Austin, TX 78702 US",30.2766897,-97.7296109
"2320 S Interregional Austin, TX 78704 US",30.2332049,-97.7425173
"7100 North I-35 Austin, TX 78752 US",30.3326532,-97.7057189
"7619 E Ben White Boulevard Austin, TX 78741 US",30.2172052,-97.6917916
"1876 East Freeway Baytown, TX 77521 US",29.8047971,-94.9813513
"7207 Garth Road Baytown, TX 77521 US",29.7526008,-94.9771493
"709 N. I-35 Bellmead, TX 76705 US",31.5836422,-97.1085601
"1710 E 3rd St Big Spring, TX 79720 US",32.2599041,-101.4534158
"435 W Bandera St Boerne, TX 78006 US",29.7796492,-98.7352534
"2951 State Hwy 36 South Brenham, TX 77833 US",30.1915202,-96.4066751
"204 S Waller Brookshire, TX 77423 US",29.7802357,-95.9527663
"1875 N Expressway Brownsville, TX 78520 US",25.9449875,-97.5052862
"6131 Paredes Line Rd. Brownsville, TX 78526 US",25.9660446,-97.4856352
"2890 Harvey Mitchell Parkway Bryan, TX 77807 US",30.7255229,-96.4254319
"868 Ne Alsbury Blvd Burleson, TX 76028 US",32.562985,-97.3218562
"17400 N Hwy 20 Canton, TX 75103 US",32.5803706,-95.8584721
"1058 US 59 S Carthage, TX 75633 US",32.1296175,-94.3319193
"16851 Interstate Highway 20 Cisco, TX 76437 US",32.3738725,-99.0072173
"607 Texas Ave College Station, TX 77840 US",30.6149552,-96.3189327
"2243 Stoneside Rd Conroe, TX 77303 US",30.3376956,-95.4787169
"8000 S Interstate 35 E Corinth, TX 76210 US",33.130647,-97.041427
"2931 Hwy 77 Corpus Christi, TX 78410 US",27.8547689,-97.631045
"4918 S Padre Island Dr Corpus Christi, TX 78411 US",27.7144227,-97.3839416
"5165 Interstate 37 Corpus Christi, TX 78408 US",27.8030104,-97.452393
"2801 U.S. 287 Corsicana, TX 75110 US",32.0752747,-96.4459332
"26050 Highway 290 Cypress, TX 77429 US",29.9730774,-95.6952915
"10433 N Central Expwy Dallas, TX 75231 US",32.8893019,-96.7705091
"13689 N. Central Exp. Dallas, TX 75243 US",32.902538,-96.768877
"1415 Medical Dist. Dr Dallas, TX 75207 US",32.8080159,-96.8399938
"2030 Market Ctr Blvd Dallas, TX 75207 US",32.798622,-96.82502903
"2425 Walnut Hill Lane Dallas, TX 75229 US",32.88155,-96.89686965
"4400 N Central Expwy Dallas, TX 75206 US",32.819221,-96.7867814
"4567 Frankford Road Dallas, TX 75287 US",32.9980741,-96.83044416
"7120 S Cockrell Hill Dallas, TX 75236 US",32.661062,-96.89084
"7425 Bonnie View Road Dallas, TX 75241 US",32.65636835,-96.75170048
"8233 East R.L. Thornton Frwy. Dallas, TX 75228 US",32.79478175,-96.69894264
"9009 Skillman Rd Dallas, TX 75243 US",32.8999693,-96.7187362
"4007 N. Interstate 35 Denton, TX 76207 US",33.2321557,-97.1756499
"1305 E Monte Cristo Edinburg, TX 78542 US",26.3361313,-98.1430382
"2301 West University Drive Edinburg, TX 78539 US",26.30538,-98.1903129
"11045 Gateway Blvd. W El Paso, TX 79935 US",31.7605493,-106.3575178
"11315 Montwood Dr El Paso, TX 79936 US",31.760602,-106.268285
"1301 North Horizon Blvd El Paso, TX 79927 US",31.659032,-106.2413583
"1613 Pleasanton Road Suite B-10 Suite B-10 El Paso, TX 79906 US",31.817006,-106.429094
"4690 Woodrow Bean El Paso, TX 79924 US",31.8991544,-106.41261
"510 Zaragosa Rd El Paso, TX 79907 US",31.7023234,-106.3210554
"6144 Gateway Blvd. E El Paso, TX 79905 US",31.7808419,-106.4078287
"6650 Montana Ave El Paso, TX 79925 US",31.793028,-106.37059
"9567 Dyer St El Paso, TX 79924 US",31.910199,-106.40159
"301 North I-45 Ennis, TX 75119 US",32.3355929,-96.6176978
"1015 Spur 350 West Euless, TX 76039 US",32.8368433,-97.0986199
"3228 Se Loop 820 Forest Hill, TX 76140 US",32.666105,-97.241935
"19212 Gulf Fwy Friendswood, TX 77546 US",29.5428327,-95.1449656
"4400 South Freeway Ft Worth, TX 76115 US",32.6829871,-97.321379
"4601 S Hulen Rd Ft Worth, TX 76132 US",32.6798746,-97.3930635
"6480 North Frwy Ft Worth, TX 76137 US",32.8700158,-97.3160537
"6737 Camp Bowie Blvd Ft Worth, TX 76116 US",32.7208755,-97.4333371
"1410 Seawall Blvd Galveston, TX 77550 US",29.2789565,-94.8047104
"12733 Interstate 635 Garland, TX 75041 US",32.8649006,-96.6609118
"457 W. Interstate 30 Garland, TX 75043 US",32.8416597,-96.5936112
"408 Westchase Drive Grand Prairie, TX 75052 US",32.6733478,-96.9982261
"1015 West Main St Gun Barrel City, TX 75156 US",32.3308882,-96.1358716
"4703 S Expressway 77/83 Harlingen, TX 78550 US",26.1602644,-97.6802393
"100 US Highway 79 S Henderson, TX 75652 US",32.1510918,-94.785044
"1104 N Sam Houston Parkway East Houston, TX 77032 US",29.938961,-95.3539728
"11099 NW Frwy Houston, TX 77092 US",29.8190908,-95.4698726
"11320 North Freeway Houston, TX 77037 US",29.8978869,-95.4124037
"11901 E Freeway Houston, TX 77029 US",29.7763085,-95.2688538
"12501 Gulf Freeway Houston, TX 77034 US",29.6174657,-95.2160939
"12697 Gessner Rd Houston, TX 77064 US",29.929415,-95.5438534
"12862 NW Freeway Houston, TX 77040 US",29.844003,-95.495068
"13031 FM 1960 W Houston, TX 77065 US",29.9178519,-95.6122659
"15919 North Freeway Houston, TX 77090 US",29.9992162,-95.4276477
"17225 A Crosby Freeway Houston, TX 77049 US",29.8548359,-95.1291309
"1760 West FM 1960 Houston, TX 77090 US",30.011374,-95.4566689
"2120 N. Loop West Houston, TX 77018 US",29.81022125,-95.43999778
"2316 Southmore Rd Houston, TX 77004 US",29.7212483,-95.3762189
"2735 Bay Area Blvd Houston, TX 77058 US",29.5783022,-95.1070262
"3332 S Loop W Houston, TX 77025 US",29.6785244,-95.429079
"4999 Hwy 6 N Houston, TX 77084 US",29.8498646,-95.6464451
"6060 Hillcroft St Houston, TX 77081 US",29.68942,-95.4926754
"6711 Sam Houston Parkway South Houston, TX 77072 US",29.703565,-95.556302
"6969 Gulf Freeway Houston, TX 77087 US",29.7116405,-95.3098726
"7300 Washington Ave Houston, TX 77007 US",29.7783236,-95.4291889
"7707 Steubner Airline Rd Houston, TX 77088 US",29.9885379,-95.4989182
"8199 SW Frwy Houston, TX 77074 US",29.6892495,-95.5288696
"8401 Westheimer Rd - Suite 190 Suite 190 Houston, TX 77063 US",29.7371469,-95.5146376
"925 N Wilcrest Houston, TX 77079 US",29.7828262,-95.576029
"9766-B Katy Frwy Houston, TX 77055 US",29.7856994,-95.5350799
"9810 Gulf Freeway Houston, TX 77034 US",29.651843,-95.252303
"19450 Hwy 59 Humble, TX 77338 US",29.9991383,-95.269527
"6920 Fm1960 Humble, TX 77346 US",29.9977515,-95.1721396
"9655 N. Sam Houston Parkway E Humble, TX 77396 US",29.9356059,-95.2457973
"3016 W 11th St Huntsville, TX 77340 US",30.7186147,-95.567477
"4115 West Airport Irving, TX 75062 US",32.8381053,-97.0082665
"8120 Esters Blvd Irving, TX 75063 US",32.9140929,-97.0079521
"1702 S. Jackson St. Jacksonville, TX 75766 US",31.9387241,-95.2504299
"11710 IH 35 Jarrell, TX 76537 US",30.8116395,-97.6116318
"1579 Fry Road Katy, TX 77449 US",29.7894367,-95.7194363
"2405 Texmati Dr Katy, TX 77494 US",29.7821412,-95.8097707
"6920 S. Fry Road Katy, TX 77494 US",29.7157054,-95.7766608
"2200 S Washington Street Kaufman, TX 75142 US",32.571033,-96.313231
"209 Sidney Barker St. South Kerrville, TX 78028 US",30.0429099,-99.1447244
"4315 Texas State Hwy 42 North Kilgore, TX 75662 US",32.4304746,-94.8640178
"1108 S. Fort Hood Rd Killeen, TX 76541 US",31.1100884,-97.7466484
"22671 Eastex Frwy Kingwood, TX 77339 US",30.0460471,-95.2548504
"928 Hwy 146 S La Porte, TX 77571 US",29.6539724,-95.0309981
"415 This Way St Lake Jackson, TX 77566 US",29.039119,-95.4550366
"3543 Jim Wright Freeway Lake Worth, TX 76135 US",32.8143344,-97.4101838
"1011 Beltway Parkway Laredo, TX 78045 US",27.6854486,-99.4659855
"3600 Santa Ursula Laredo, TX 78041 US",27.5320394,-99.5036042
"2940 South Highway 45 League City, TX 77573 US",29.467948,-95.090982
"2267 S Stemmons Freeway Lewisville, TX 75067 US",33.04355,-97.00674
"12816 IH 35 N Live Oak, TX 78233 US",29.5555047,-98.3464243
"3126 S. Eastman Rd. Longview, TX 75602 US",32.4500848,-94.7090323
"4718 Slide Rd Lubbock, TX 79414 US",33.534613,-101.922305
"607 Avenue Q Lubbock, TX 79401 US",33.5935997,-101.8553471
"6111 FM 1488 Magnolia, TX 77354 US",30.2232,-95.56062
"1110 So 10th St Mcallen, TX 78501 US",26.1929709,-98.2323124
"401 E Nolana Ave Mcallen, TX 78504 US",26.2387671,-98.2195231
"1615 N Central Expressway Mckinney, TX 75070 US",33.213613,-96.63808
"11511 W Airport Blvd Meadows Place, TX 77477 US",29.6483977,-95.5923699
"114 Hwy 80 Mesquite, TX 75149 US",32.7923497,-96.6294894
"4004 Emporium Circle Mesquite, TX 75150 US",32.8116828,-96.624727
"3701 W Wall Ave Midland, TX 79703 US",31.9792015,-102.1123873
"116 South Shary Rd Mission, TX 78572 US",26.1887066,-98.2895636
"6131 Hwy 6 S Missouri City, TX 77459 US",29.5675903,-95.5652883
"302 W. Fm 544 Murphy, TX 75094 US",33.0115939,-96.6112102
"8025 Glenview Dr N Richland Hills, TX 76180 US",32.8239795,-97.2427282
"2615 N. Stallings Dr. Nacogdoches, TX 75964 US",31.6520629,-94.6578347
"1888 US-82 New Boston, TX 75570 US",33.464163,-94.435981
"1348 North IH 35 New Braunfels, TX 78130 US",29.7020883,-98.0912225
"23412 Sh 242 New Caney, TX 77357 US",30.1927056,-95.1933173
"105 W 42nd St Odessa, TX 79764 US",31.874164,-102.424076
"7112 I-10 West Orange, TX 77632 US",30.1164035,-93.8196748
"2350 West Oak St. #100 Palestine, TX 75801 US",31.7432029,-95.6559194
"3040 NE Loop 286 Paris, TX 75460 US",33.6726846,-95.519888
"4125 Spencer Hwy Pasadena, TX 77504 US",29.6655241,-95.1636867
"909 West Pasadena Pasadena, TX 77506 US",29.7093511,-95.2209364
"11221 Broadway Blvd Pearland, TX 77581 US",29.5562503,-95.3947726
"100 E Pinehurst Pecos, TX 79772 US",31.4010802,-103.4865888
"1305 Preston Road Plano, TX 75093 US",33.0352399,-96.7945804
"1830 No Central Plano, TX 75074 US",33.0258565,-96.7090186
"408 N I-35 East Service Road Red Oak, TX 75154 US",32.5294106,-96.821222
"4756 E Hwy 83 Rio Grande City, TX 78582 US",26.3635942,-98.7906258
"670 East Interstate 30 Rockwall, TX 75032 US",32.8983786,-96.466732
"27960 Southwest Fwy Rosenberg, TX 77471 US",29.53464,-95.776068
"2700 North IH-35 Round Rock, TX 78681 US",30.5380154,-97.6932676
"201 W Hwy I-30 Royse City, TX 75189 US",32.9671634,-96.3339148
"427 W Avenue I San Angelo, TX 76901 US",31.4486342,-100.4573125
"13635 San Pedro Ave San Antonio, TX 78232 US",29.6027574,-98.4699195
"1815 North Foster Rd San Antonio, TX 78244 US",29.4467458,-98.3621801
"2210 Loop 410 SE San Antonio, TX 78220 US",29.3993656,-98.3881027
"4510 Fredericksburg Rd San Antonio, TX 78201 US",29.468136,-98.529729
"6000 N. Panam San Antonio, TX 78218 US",29.4827443,-98.4025714
"6703 Fm78 San Antonio, TX 78244 US",29.4830092,-98.3571506
"6801 Blanco Rd San Antonio, TX 78216 US",29.5220658,-98.5057528
"6854 Ingram Rd San Antonio, TX 78238 US",29.4663704,-98.6166181
"6859 Highway 90 West San Antonio, TX 78227 US",29.4036348,-98.6268525
"7122 Interstate 35-s. Access Rd. San Antonio, TX 78224 US",29.3559601,-98.5256213
"7138 NW Loop 410 San Antonio, TX 78238 US",29.463475,-98.621852
"903 E Commerce St San Antonio, TX 78205 US",29.42314205,-98.48290826
"9550 I-10 West San Antonio, TX 78230 US",29.5509101,-98.5850863
"17455 IH 35 N Schertz, TX 78154 US",29.5997996,-98.2789304
"400 N Highway 175 Seagoville, TX 75159 US",32.655243,-96.557758
"28669 I-45 North Shenandoah, TX 77381 US",30.1863081,-95.4527606
"1100 Padre Blvd. South Padre Island, TX 78597 US",26.1418961,-97.1722245
"20015 I-45 N Spring, TX 77388 US",30.0542395,-95.4331775
"6504 FM 2920 Spring, TX 77379 US",30.0745392,-95.5232235
"7720 Louetta Rd Spring, TX 77379 US",30.017693,-95.5307414
"1422 State Hwy 6 S Sugar Land, TX 77478 US",29.601725,-95.633103
"1102 FM 148 Terrell, TX 75160 US",32.720143,-96.320421
"1201 Hwy 146 N Texas City, TX 77590 US",29.3943877,-94.9520129
"14010 FM 2920 Tomball, TX 77375 US",30.099854,-95.586953
"101 N FM 707 Tye, TX 79563 US",32.39329,-99.853552
"3244 Gentry Pkwy Tyler, TX 75702 US",32.3675,-95.289
"7601 Navarro St Victoria, TX 77904 US",28.8658483,-96.9976461
"2409 South New Road Waco, TX 76711 US",31.52115,-97.168142
"1416 W Expwy 83 Weslaco, TX 78596 US",26.1730981,-98.0054826
"10367 Highway 59 Wharton, TX 77488 US",29.3266596,-96.121057
"1206 Central Frwy N Wichita Falls, TX 76306 US",33.9366052,-98.5199243
"4301 Kemp Blvd Wichita Falls, TX 76308 US",33.8655995,-98.5354466
"201 N. Hwy. I-45 Wilmer, TX 75172 US",32.5939487,-96.6840558
"1832 Old Minden Road Bossier City, LA 71111 US",32.5159803,-93.714305
"9510 Greenwood Road Greenwood, LA 71033 US",32.442714,-93.959269
"5910 Veterans Metairie, LA 70003 US",30.0049972,-90.2169335
"9080 Mansfield Rd Shreveport, LA 71118 US",32.40757,-93.798686
"7135 Nc #4 Battleboro, NC 27809 US",36.0393876,-77.7626471
"581 South Highway 9 Black Mountain, NC 28711 US",35.6094137,-82.3181715
"4541 Sunset Rd Charlotte, NC 28216 US",35.3075721,-80.8511914
"516 Tyvola Rd Charlotte, NC 28217 US",35.1629502,-80.8889214
"9201 University City Blvd. South Village Building, UNCC Charlotte, NC 28223 US",35.3028554,-80.7348008
"8031 Concord Mills Blvd Concord, NC 28027 US",35.3735603,-80.7244978
"7021 Highway 751 #901 Durham, NC 27707 US",35.917465,-78.9608474
"5505 Raeford Rd Fayetteville, NC 28304 US",35.04317,-78.956958
"3703 West Gate City Blvd. Greensboro, NC 27407 US",36.0379478,-79.8509643
"808 S Memorial Dr Greenville, NC 27834 US",35.5831238,-77.3963597
"1043 Jimmie Kerr Road Haw River, NC 27258 US",36.0714017,-79.3528473
"1524 Dabney Dr Henderson, NC 27536 US",36.3340005,-78.4368658
"1550 Four Seasons Hendersonville, NC 28792 US",35.3319668,-82.4481961
"2207 N. Marine Blvd Jacksonville, NC 28546 US",34.780527,-77.3880391
"1800 Princeton-Kenly Road Kenly, NC 27542 US",35.57376,-78.147115
"975 S Main St Kernersville, NC 27284 US",36.1091307,-80.0945967
"101 Wintergreen Dr Lumberton, NC 28358 US",34.6690693,-79.003688
"378 West Plaza Drive Mooresville, NC 28117 US",35.5940467,-80.8566021
"1209 Burkemount Avenue Morganton, NC 28655 US",35.7173877,-81.6943542
"3215 Wake Forest Rd Raleigh, NC 27609 US",35.82723245,-78.6208755
"4380 Fayetteville Rd. Raleigh, NC 27603 US",35.7043188,-78.6636294
"55 Jr Road Selma, NC 27576 US",35.5179158,-78.2905951
"2025 E Dixon Blvd Shelby, NC 28150 US",35.2737782,-81.5263117
"2020 Highway 172 Sneads Ferry, NC 28460 US",34.5490584,-77.4294048
"1493 Us Hwy 74-a Bypass Spindale, NC 28160 US",35.3416713,-81.9121192
"103 Sedgehill Dr Thomasville, NC 27360 US",35.8618223,-80.0732807
"1201 S. College Rd Wilmington, NC 28403 US",34.242497,-77.870578
"2806 Raleigh Rd Parkway W Wilson, NC 27893 US",35.7381441,-77.9535161
"405 S 7th St Bismarck, ND 58504 US",46.8017737,-100.7812267
"4437 13th Ave SW Fargo, ND 58103 US",46.8623115,-96.8612131
"3770 32nd Avenue S Grand Forks, ND 58201 US",47.8900259,-97.0821797
"2701 S Broadway Minot, ND 58701 US",48.2057729,-101.2952036
"3333 Ramada Road Grand Island, NE 68801 US",40.8880995,-98.3409697
"15010 South State Hwy 31 Gretna, NE 68028 US",41.0916542,-96.2547964
"3400 Newberry Road North Platte, NE 69101 US",41.1010672,-100.7272963
"201 Chuck Wagon Rd. Ogallala, NE 69153 US",41.1171579,-101.7171677
"3509 S 84th St Omaha, NE 68124 US",41.2595005,-96.0429474
"1011 Paul Huff Highway Cleveland, TN 37312 US",35.2129842,-84.8707447
"1420 Hwy 96 North Fairview, TN 37062 US",36.0270605,-87.1717159
"28 San Pebble Rd I-40 Exit 85 Jackson, TN 38305 US",35.6829565,-88.7778128
"800 Watt Rd Knoxville, TN 37932 US",35.881901,-84.2352486
"7065 Winchester Rd. Memphis, TN 38125 US",35.0476242,-89.7638879
"2480 Parkway Pigeon Forge, TN 37863 US",35.7737182,-83.5382055
"3716 Parkway Pigeon Forge, TN 37863 US",35.7737182,-83.5382055
"114 Wolf Road Albany, NY 12205 US",42.7295133,-73.7951075
"3920 Maple Road Amherst, NY 14226 US",42.9908211,-78.8134525
"176 Grant Ave. Auburn, NY 13021 US",42.940976,-76.55364
"364 W. Main St. Batavia, NY 14020 US",42.999202,-78.190114
"1250 Upper Front St. Binghamton, NY 13901 US",42.118554,-75.906756
"805 Pennsylvania Ave Brooklyn, NY 11207 US",40.65814925,-73.88985539
"2215 Delaware Ave. Buffalo, NY 14216 US",42.9290035,-78.8657248
"4445 Main St. Buffalo, NY 14226 US",42.9638278,-78.7900327
"5315 W. Genessee St. Camillus, NY 13031 US",43.0406166,-76.271354
"160 Eastern Blvd. Canandaigua, NY 14424 US",42.8776383,-77.2558799
"371 Old Country Road Carle Place, NY 11514 US",40.745454,-73.6019176
"255 Centereach Mall Centereach, NY 11720 US",40.8613048,-73.0824621
"4610 Genesee St. Cheektowaga, NY 14225 US",42.9298933,-78.7397603
"7873 Brewerton Road Cicero, NY 13039 US",43.204176,-76.129872
"8484 Allegheny Road Corfu, NY 14036 US",43.0013486,-78.4072419
"1 River St Cortland, NY 13045 US",42.6041325,-76.161611
"4757 Transit Rd Depew, NY 14043 US",42.8677276,-78.6958725
"126 Troy Rd East Greenbush, NY 12061 US",42.6020276,-73.7080396
"4 Perinton Hills Mall Fairport, NY 14450 US",43.0691019,-77.4454366
"10390 Bennet Road Fredonia, NY 14063 US",42.454104,-79.30914
"4240 Lakeville Road Geneseo, NY 14454 US",42.809537,-77.7674641
"813 Canandaigua Rd Geneva, NY 14456 US",42.8576196,-77.020479
"5092 Camp Rd. Hamburg, NY 14075 US",42.734451,-78.838835
"701 Mohawk St Herkimer, NY 13350 US",43.018142,-74.992902
"950 Chemung St. Horseheads, NY 14845 US",42.156485,-76.822814
"323 Elmira Rd. Ithaca, NY 14850 US",42.425896,-76.511447
"8710 Northern Blvd Jackson Heights, NY 11372 US",40.7563998,-73.8773631
"697 Troy-Schenectady Rd Latham, NY 12110 US",42.7525992,-73.7677021
"5699 Transit Road Lockport, NY 14094 US",43.1873797,-78.6968386
"411 Route 211 East Middletown, NY 10940 US",41.4562102,-74.3870732
"8548 Seneca Turnpike New Hartford, NY 13413 US",43.0824374,-75.3250805
"150 Nassau St New York, NY 10038 US",40.7115311,-74.0059028
"1283 Rt 300 Newburgh, NY 12550 US",41.505993,-74.0687015
"443 Main St Niagara Falls, NY 14301 US",43.0890249,-79.0621282
"8020 Niagara Falls Blvd Niagara Falls, NY 14304 US",43.0958602,-78.9520642
"1143 Deer Park Ave. North Babylon, NY 11703 US",40.73095,-73.3210017
"201 Lawrence Road North Syracuse, NY 13212 US",43.1241001,-76.1383729
"1078 Glenwood Avenue Oneida, NY 13421 US",43.069331,-75.63988
"4979 State Hwy 23 Oneonta, NY 13820 US",42.4485905,-75.0486602
"3165 South Western Blvd. Orchard Park, NY 14127 US",42.79917,-78.7465697
"118 Victory Highway Painted Post, NY 14870 US",42.162441,-77.092176
"248 Quaker Rd Queensbury, NY 12804 US",43.3313563,-73.668884
"2890 W. Ridge Road Rochester, NY 14626 US",43.2108798,-77.7052183
"911 Jefferson Road Rochester, NY 14623 US",43.087335,-77.568339
"200 S James St Rome, NY 13440 US",43.209848,-75.458343
"468 Louden Road Saratoga Springs, NY 12866 US",43.110036,-73.697665
"60 Nott Terrace Schenectady, NY 12308 US",42.8143973,-73.93380273
"4370 Amboy Road Staten Island, NY 10312 US",40.540637,-74.167512
"103 Elwood Davis Road Syracuse, NY 13212 US",43.0935809,-76.172289
"3414 Erie Blvd Syracuse, NY 13214 US",43.0470436,-76.070297
"6591 Thompson Road Syracuse, NY 13206 US",43.0894402,-76.09272981
"180 N Genesee St Utica, NY 13501 US",43.11518,-75.211935
"4024 Vestal Parkway East Vestal, NY 13850 US",42.0953556,-75.9759092
"7503 Main St. - Fisher Victor, NY 14564 US",43.0085172,-77.4450261
"1142 Arsenal St Watertown, NY 13601 US",43.976744,-75.934158
"1881 Ridge Road West Seneca, NY 14224 US",42.8284507,-78.7879094
"1871 Catasauqua Road Allentown, PA 18109 US",40.6409413,-75.4313193
"220 Park Hills Plz Altoona, PA 16602 US",40.4695926,-78.4063346
"4276 Business Route 220 Bedford, PA 15522 US",40.0506076,-78.5106893
"855 Rostraver Rd Belle Vernon, PA 15012 US",40.1378951,-79.8430514
"131 Papermill Rd. Bloomsburg, PA 17815 US",41.0264258,-76.4282472
"246 Allegheny Blvd Brookville, PA 15825 US",41.158284,-79.098672
"1501 Harrisburg Pike Carlisle, PA 17015 US",40.2347898,-77.1233767
"1071 Wayne Avenue Chambersburg, PA 17201 US",39.91190535,-77.65078219
"5321 Baltimore Pike Clifton Heights, PA 19018 US",39.9255856,-75.309742
"1346 Old Freedom Rd Cranberry Township, PA 16066 US",40.6853428,-80.1044323
"47 Industrial Highway Essington, PA 19029 US",39.8666935,-75.3013134
"200 West Drive Greensburg, PA 15601 US",40.3056119,-79.5765627
"84 Rt 93 Hazleton, PA 18202 US",40.9536087,-75.9726452
"2079 E State St Hermitage, PA 16148 US",41.2334629,-80.4493484
"9174 Lincoln Hwy Irwin, PA 15642 US",40.3272611,-79.714493
"3156 Elton Road Johnstown, PA 15904 US",40.2790653,-78.8475229
"640 East Lincoln Highway Langhorne, PA 19047 US",40.164046,-74.9046574
"3870 Route 30 Latrobe, PA 15650 US",40.286457,-79.382047
"5505 Carlisle Pike Mechanicsburg, PA 17050 US",40.2407231,-76.9838355
"5609 Nittany Valley Drive Mill Hall, PA 17751 US",41.028802,-77.5221399
"3980 William Penn Highway Monroeville, PA 15146 US",40.429101,-79.7077884
"209 Tarentum Bridge New Kensington, PA 15068 US",40.5908662,-79.7516906
"1623 Oliver Road New Milford, PA 18834 US",41.8246563,-75.6820167
"1829 Lincoln Highway North Versailles, PA 15137 US",40.3691063,-79.7825209
"2180 Greentree Rd Pittsburgh, PA 15220 US",40.4347039,-80.0351135
"2701 Freeport Rd. Pittsburgh, PA 15238 US",40.4866346,-79.889631
"271 Clairton Blvd Pittsburgh, PA 15236 US",40.3377829,-79.9504723
"7319 McKnight Rd Pittsburgh, PA 15237 US",40.5384022,-80.0120066
"449 Pennsylvania 315 Pittston, PA 18640 US",41.3159494,-75.7533172
"410 Scranton Carbondale Hwy Scranton, PA 18508 US",41.4570104,-75.6600223
"973 N. Susquehanna Trail Selinsgrove, PA 17870 US",40.8276907,-76.8457155
"122 Fitz Henry Road Smithton, PA 15479 US",40.1699581,-79.7316903
"1395 W Chestnut St Washington, PA 15301 US",40.165015,-80.2739034
"2200 Lebanon Church Road West Mifflin, PA 15122 US",40.3528783,-79.9019167
"488 Kidder St. Wilkes-Barre, PA 18702 US",41.2493526,-75.8584901
"1716 E. 3rd St. Williamsport, PA 17701 US",41.2500402,-76.9716354
"1199 Louck Road York, PA 17404 US",39.9793144,-76.7576496
"14240 US Highway 395 Adelanto, CA 92301 US",34.5092977,-117.3999366
"369 W Main St Alhambra, CA 91801 US",34.0936023,-118.1309785
"1168 W Katella Ave Anaheim, CA 92802 US",33.8028046,-117.9272166
"1610 S Harbor Blvd Anaheim, CA 92802 US",33.7923621,-117.9149792
"2005 E Katella Ave Anaheim, CA 92806 US",33.8061556,-117.8765295
"2080 S Harbor Blvd Anaheim, CA 92802 US",33.7923621,-117.9149792
"210 S Euclid St Anaheim, CA 92802 US",33.8313477,-117.9411477
"2006 Somersville Rd Antioch, CA 94509 US",38.0128042,-121.8287644
"4823 Lone Tree Way Antioch, CA 94531 US",37.9632358,-121.766965
"18989 Bear Valley Road Apple Valley, CA 92308 US",34.4714798,-117.1951697
"20242 Hwy 18 Apple Valley, CA 92307 US",34.5272932,-117.2213671
"7 East Huntington Dr Arcadia, CA 91006 US",34.1390763,-118.0384802
"16907 S Pioneer Blvd Artesia, CA 90701 US",33.8773874,-118.0826288
"6910 El Camino Real Atascadero, CA 93422 US",35.487083,-120.6665167
"1601 Sycamore Ave Atwater, CA 95301 US",37.34606565,-120.6136607
"1800 Auburn Ravine Rd. Auburn, CA 95603 US",38.9203775,-121.0608296
"72415 Baker Blvd Baker, CA 92309 US",35.2712516,-116.0657241
"17047 Zachary Avenue Bakersfield, CA 93308 US",35.5311418,-119.1875821
"2309 Panama Lane Bakersfield, CA 93307 US",35.295882,-119.011909
"2627 Buck Owens Blvd Bakersfield, CA 93308 US",35.3839666,-119.0435077
"2684 Mt. Vernon Ave Bakersfield, CA 93306 US",35.3613472,-118.9675374
"2851 White Lane Bakersfield, CA 93304 US",35.3177316,-119.0367809
"35175 7th Standard Road Bakersfield, CA 93308 US",35.4411135,-119.0867725
"4440 Gosford Rd Bakersfield, CA 93311 US",35.314923,-119.0917003
"8011 E Brundage Lane Bakersfield, CA 93307 US",35.35413,-118.958662
"8710 Rosedale Hwy Bakersfield, CA 93312 US",35.3835273,-119.0994758
"14550 Baldwin Pk Towne Center Baldwin Park, CA 91706 US",34.0714002,-117.9584528
"6305 Joshua Palmer Way Banning, CA 92220 US",33.9277841,-116.9458995
"1200 E. Main St. Barstow, CA 92311 US",34.8974335,-117.0096817
"2611 Fisher Rd. Barstow, CA 92311 US",34.8545091,-117.0814158
"2830 Lenwood Rd Barstow, CA 92311 US",34.8501083,-117.0836313
"449 E 4th St Beaumont, CA 92223 US",33.9262907,-116.9785929
"17230 Lakewood Blvd Bellflower, CA 90706 US",33.8829073,-118.1426458
"9312 Rosecrans Bellflower, CA 90706 US",33.9020284,-118.1166556
"41196 Big Bear Blvd Big Bear, CA 92315 US",34.2437994,-116.9033567
"1014 N Main St Bishop, CA 93514 US",37.3676198,-118.3953421
"876 W Donlon St Blythe, CA 92225 US",33.6063717,-114.6062366
"7740 Orangethorpe Buena Park, CA 90621 US",33.8586514,-117.998442
"1010 W Alameda Ave Burbank, CA 91506 US",34.1628831,-118.3132214
"2525 North Hollywood Way Burbank, CA 91505 US",34.1943363,-118.3493258
"20672 Tracy Ave. Buttonwillow, CA 93206 US",35.4201,-119.411862
"110 W Cole Rd Calexico, CA 92231 US",32.6939682,-115.5167912
"1184 Calimesa Blvd Calimesa, CA 92320 US",33.9920658,-117.0567241
"1659 E Dailey Dr Camarillo, CA 93010 US",34.2181231,-119.0481429
"3446 Coach Lane Cameron Park, CA 95682 US",38.6581397,-120.9683453
"2060 S Bascom Ave Campbell, CA 95008 US",37.291726,-121.9318064
"8330 Topanga Canyon Blvd Canoga Park, CA 91306 US",34.2205764,-118.6060101
"18932 W. Soledad Canyon Rd Canyon Country, CA 91351 US",34.4153357,-118.4655779
"1048 Carlsbad Village Dr Carlsbad, CA 92008 US",33.16386105,-117.3434622
"7433 Fair Oaks Blvd. Carmichael, CA 95608 US",38.603124,-121.33801
"600 Carson Plaza Dr Carson, CA 90746 US",33.8447058,-118.2647472
"31724 Castaic Rd Castaic, CA 91384 US",34.4966973,-118.6226425
"69050 Hwy 111 Cathedral City, CA 92234 US",33.7778945,-116.4565953
"1507 Herndon Rd. Ceres, CA 95307 US",37.6084543,-120.9747284
"675 Manzanita Court Chico, CA 95926 US",39.7527932,-121.8433149
"12180 Central Ave Chino, CA 91710 US",34.0053172,-117.6891749
"15459 Fairfield Ranch Rd Chino Hills, CA 91710 US",33.9714507,-117.6898059
"110 Bonita Rd Chula Vista, CA 91910 US",32.647678,-117.0630975
"2110 Birch Rd. Chula Vista, CA 91915 US",32.6212233,-116.9623572
"692 E St Chula Vista, CA 91910 US",32.6394254,-117.1003468
"5142 Triggs St City Of Commerce, CA 90022 US",34.0108467,-118.1620385
"820 South Indian Hill Blvd. Claremont, CA 91711 US",34.0809448,-117.7185802
"1151 Herndon Ave Clovis, CA 93612 US",36.8372393,-119.7045132
"710 W Shaw Avenue Clovis, CA 93612 US",36.8085644,-119.719609
"25026 West Dorris Coalinga, CA 93210 US",36.2556018,-120.2490871
"1190 S. Mt. Vernon Colton, CA 92324 US",34.0487845,-117.3085902
"160 West Valley Blvd. Colton, CA 92324 US",34.0666888,-117.3254102
"7268 E Gage Ave Commerce, CA 90040 US",33.973822,-118.146662
"1313 Willow Pass Rd Concord, CA 94520 US",37.96897465,-122.0524006
"2120 South Avenue Corning, CA 96021 US",39.9076542,-122.1964065
"165 McKinley St Corona, CA 92879 US",33.8913021,-117.522035
"1833 W 6th St Corona, CA 92882 US",33.8774745,-117.5856889
"2379 Compton Ave Corona, CA 92881 US",33.8507999,-117.5362164
"3170 Harbor Blvd Costa Mesa, CA 92626 US",33.6863485,-117.9190435
"1225 5th St Crescent City, CA 95531 US",41.752576,-124.200923
"10700 Jefferson Blvd. Culver City, CA 90230 US",33.9989207,-118.3954677
"2 Serra Monte Daly City, CA 94015 US",37.675207,-122.471426
"34242 Del Obispo Dana Point, CA 92629 US",33.4651926,-117.6869629
"2203 Via De La Valle Del Mar, CA 92014 US",32.9802261,-117.2690341
"14390 County Line Rd Delano, CA 93215 US",35.7904255,-119.2513457
"1250 Stratford Ave Dixon, CA 95620 US",38.4580466,-121.8395287
"8350 E. Firestone Blvd. Downey, CA 90241 US",33.9388838,-118.1320311
"1060 Huntington Dr Duarte, CA 91010 US",34.1396697,-117.9576813
"1202 W Main St El Cajon, CA 92021 US",32.7953451,-116.9778545
"2642 Jamacha Rd El Cajon, CA 92019 US",32.7444502,-116.9315858
"2691 Navajo Rd El Cajon, CA 92020 US",32.8014744,-117.0017023
"665 N Mollison Ave El Cajon, CA 92021 US",32.8037349,-116.9505373
"1445 Ocotillo Drive El Centro, CA 92243 US",32.7778415,-115.5832287
"3403 Dogwood Ave. El Centro, CA 92243 US",32.7631709,-115.5344025
"11344 San Pablo Ave El Cerrito, CA 94530 US",37.9212687,-122.3150554
"3540 N Peck Rd El Monte, CA 91731 US",34.0688848,-118.0279708
"9804 E. Flair Drive El Monte, CA 91731 US",34.0718478,-118.05519
"2555 El Segundo Blvd El Segundo, CA 90245 US",33.9166903,-118.3748618
"8707 Elk Grove Blvd Elk Grove, CA 95624 US",38.40936185,-121.3805168
"1776 Powell Street Emeryville, CA 94608 US",37.8393132,-122.2899927
"135 Encinitas Blvd Encinitas, CA 92024 US",33.048148,-117.2892842
"510 W. Mission Ave Escondido, CA 92025 US",33.1285426,-117.0926319
"136 5th St Eureka, CA 95501 US",40.8012767,-124.1693874
"1360 Holiday Lane Fairfield, CA 94534 US",38.2570126,-122.0673362
"260 Pittman Rd Fairfield, CA 94534 US",38.2200892,-122.1268594
"2980 Travis Blvd Fairfield, CA 94534 US",38.258078,-122.0600209
"713 South Main St Fallbrook, CA 92028 US",33.3762279,-117.2517374
"1011 Riley St Folsom, CA 95630 US",38.6732427,-121.1719702
"13479 Baseline Ave Fontana, CA 92336 US",34.1213529,-117.4848697
"17009-A Valley Blvd. Fontana, CA 92335 US",34.070001,-117.4332287
"26712 Portola Parkway Foothill Ranch, CA 92610 US",33.67925445,-117.6643881
"16205 Brookhurst St Fountain Valley, CA 92708 US",33.7158634,-117.9543809
"160 N 10th Street Fowler, CA 93625 US",36.6303474,-119.6864708
"46645 Mission Blvd. Fremont, CA 94539 US",37.4906557,-121.9295285
"5280 Mowry Ave Fremont, CA 94538 US",37.5335166,-122.0002158
"1110 East Shaw St. Fresno, CA 93710 US",36.8089752,-119.769847
"1121 N. Parkway Dr. Fresno, CA 93728 US",36.7499685,-119.8252365
"141 Abby St. Fresno, CA 93701 US",36.744111,-119.789678
"1746 W. Shaw Ave Fresno, CA 93711 US",36.80864,-119.8250001
"2568 S East Ave Fresno, CA 93706 US",36.7072852,-119.772975
"30 E Herndon Ave Fresno, CA 93720 US",36.8374085,-119.7630407
"3120 N Blackstone Ave Fresno, CA 93703 US",36.7792309,-119.7901095
"530 South Clovis Ave Fresno, CA 93727 US",36.7375973,-119.7004915
"901 N Main St Ft Bragg, CA 95437 US",39.4522173,-123.8062326
"1101 S Harbor Blvd Fullerton, CA 92832 US",33.8608402,-117.9245916
"2920 E Nutwood Ave Fullerton, CA 92831 US",33.8775971,-117.8790861
"1055 C St Galt, CA 95632 US",38.2534213,-121.2984193
"13302 Harbor Blvd. Garden Grove, CA 92843 US",33.7670381,-117.9202632
"18620 S Western Ave Gardena, CA 90248 US",33.8754502,-118.3091545
"8425 San Ysidro Ave Gilroy, CA 95020 US",37.0311434,-121.5696455
"546 W. Baseline Rd. Glendora, CA 91740 US",34.1214829,-117.8718564
"12820 St. Hwy 33 Gustine, CA 95322 US",37.103184,-121.015291
"1150 So Seventh Ave. Hacienda Heights, CA 91745 US",34.0184349,-117.988189
"1635 Glendale Ave. Hanford, CA 93230 US",36.3198298,-119.6715745
"13201 Hawthorne Blvd Hawthorne, CA 90250 US",33.9164096,-118.3524558
"14301 Inglewood Hawthorne, CA 90250 US",33.9158967,-118.3612416
"30163 Industrial Hayward, CA 94544 US",37.6080866,-122.0659482
"2675 W Florida Ave Hemet, CA 92545 US",33.7474228,-116.9934568
"13165 Main St Hesperia, CA 92345 US",34.4214612,-117.3010827
"2442 Highland Avenue Highland, CA 92346 US",34.1364572,-117.2340503
"6100 Sunset Hollywood, CA 90028 US",34.0977994,-118.3226206
"18477 Beach Blvd Huntington Beach, CA 92648 US",33.6817767,-117.9888215
"82120 Hwy 111 Indio, CA 92201 US",33.7143018,-116.234566
"14962 Sand Canyon Ave Irvine, CA 92618 US",33.6763509,-117.7589752
"200 S Hwy 49 Jackson, CA 95642 US",38.34652,-120.771648
"27585 Bernard Drive Kettleman City, CA 93239 US",35.9877594,-119.9603351
"1129 Broadway King City, CA 93930 US",36.2049907,-121.1370281
"801 Sierra Kingsburg, CA 93631 US",36.518378,-119.5606385
"4235 Spring St La Mesa, CA 91941 US",32.7691738,-117.0227314
"15553 Valley Blvd La Puente, CA 91744 US",34.0206847,-117.9586967
"31760 Grape St Lake Elsinore, CA 92532 US",33.6587797,-117.2941607
"23515 El Toro Rd Lake Forest, CA 92630 US",33.6201327,-117.7015768
"13584 Camino Canada Lakeside, CA 92040 US",32.8270463,-116.9016223
"11605 Carson St. Lakewood, CA 90715 US",33.8314862,-118.0849544
"2634 E Carson St Lakewood, CA 90712 US",33.8320794,-118.16028
"5520 South Street Lakewood, CA 90713 US",33.8586283,-118.1186791
"1028 West Ave I Lancaster, CA 93534 US",34.7039349,-118.1414489
"2005 W Ave K Lancaster, CA 93536 US",34.6754092,-118.1661115
"16851 Harlan Rd Lathrop, CA 95330 US",37.8100434,-121.2952163
"9046 Loop Rd E Lebec, CA 93243 US",34.9417815,-118.9286783
"15237 Thornton Road Lodi, CA 95242 US",38.1178277,-121.3947569
"701 E Kettleman Lane Lodi, CA 95240 US",38.1165442,-121.2592236
"2860 N Bellflower Blvd Long Beach, CA 90815 US",33.7877375,-118.1238647
"3333 Atlantic Ave Long Beach, CA 90807 US",33.8178848,-118.1853417
"5570 Pacific Coast Highway Long Beach, CA 90804 US",33.7898497,-118.1524502
"601 N Long Beach Blvd Long Beach, CA 90802 US",33.7726475,-118.1893048
"11700 Wilmington Ave Los Angeles, CA 90059 US",33.9329525,-118.2390537
"3060 San Fernando Rd Los Angeles, CA 90065 US",34.1089522,-118.2419789
"3740 S. Crenshaw Blvd. Los Angeles, CA 90016 US",34.018402,-118.3345937
"3750 Wilshire Blvd Los Angeles, CA 90010 US",34.0619141,-118.3276278
"400 N Vermont Avenue Los Angeles, CA 90004 US",34.0780184,-118.2914581
"4760 East Cesar E Chavez Avenue Los Angeles, CA 90022 US",34.0403409,-118.1627124
"530 Ramirez St Los Angeles, CA 90012 US",34.0545049,-118.2317869
"5535 W Century Los Angeles, CA 90045 US",33.9458783,-118.3775794
"5751 Sunset Blvd Los Angeles, CA 90028 US",34.0983591,-118.3154802
"635 S. Vermont Ave. Los Angeles, CA 90005 US",34.0626993,-118.2916392
"8601 S Bellanca Ave Los Angeles, CA 90045 US",33.9596818,-118.3807567
"888 S Figueroa St Los Angeles, CA 90017 US",34.0465475,-118.2619062
"1491 West Pacheco Los Banos, CA 93635 US",37.0563888,-120.8779097
"I-5 Hwy 46 Lost Hills, CA 93249 US",35.6168264,-119.6563148
"11195 Long Beach Blvd Lynwood, CA 90262 US",33.9137414,-118.2090758
"22717 Ave 18 1/2 Madera, CA 93637 US",37.0188641,-120.1332147
"1135 S. Main St. Manteca, CA 95336 US",37.8130101,-121.2176404
"110 Reservation Road Marina, CA 93933 US",36.6752151,-121.774307
"630 Tenth St. Marysville, CA 95901 US",39.1453487,-121.5940815
"5900 Atlantic Blvd Maywood, CA 90270 US",33.9848199,-118.1860172
"1500 Ana Sparks Way Mckinleyville, CA 95519 US",40.931994,-124.101977
"1128 W 13th St Merced, CA 95341 US",37.30056005,-120.4957176
"333 S. Abbott Milpitas, CA 95035 US",37.425564,-121.9141377
"6285 Pats Ranch Road Suite A Mira Loma, CA 91752 US",33.9732899,-117.5440674
"24445 Alicia Parkway Mission Viejo, CA 92691 US",33.6209362,-117.6656851
"110 McHenry St. Modesto, CA 95354 US",37.645749,-120.9935097
"1525 McHenry Ave. Modesto, CA 95350 US",37.6553233,-120.9938165
"2052 W. Orangeburg St. Modesto, CA 95350 US",37.6661431,-121.030323
"16262 Sierra Hwy Mojave, CA 93501 US",35.0066099,-118.1603106
"2727 Via Campo Montebello, CA 90640 US",34.0328475,-118.1205312
"2137 North Fremont St. Monterey, CA 93940 US",36.5965815,-121.86149
"300 Fremont Street Monterey, CA 93940 US",36.5949631,-121.8929533
"832 New Los Angeles Ave Moorpark, CA 93021 US",34.2810458,-118.8655194
"24952 Sunnymead Blvd Moreno Valley, CA 92553 US",33.9390745,-117.243769
"875 Cochrane Rd. Morgan Hill, CA 95037 US",37.1510709,-121.6553231
"25365 Madison Ave Murrieta, CA 92562 US",33.5519741,-117.1951499
"1000 Imola Ave Napa, CA 94559 US",38.2806616,-122.2734345
"1904 Sweetwater Rd. National City, CA 91950 US",32.6609294,-117.0791218
"424 W. Mile Of Cars National City, CA 91950 US",32.6603461,-117.1059966
"2830 Camino Del Rios North Newbury Park, CA 91320 US",34.189289,-118.936509
"681 Newcastle Rd Newcastle, CA 95658 US",38.873458,-121.1322116
"25341 Chiquella Ln Newhall, CA 91381 US",34.378461,-118.567299
"1360 N Hamner Ave Norco, CA 92860 US",33.9016499,-117.5627434
"11377 Burbank Blvd. North Hollywood, CA 91601 US",34.1721725,-118.3659549
"13136 Sherman Way North Hollywood, CA 91605 US",34.2012032,-118.3873
"63690 20th Ave. North Palm Springs, CA 92258 US",33.9067265,-116.5463457
"17018 Devonshire St Northridge, CA 91325 US",34.2573281,-118.5030781
"9001 Tampa Ave. Northridge, CA 91324 US",34.2490286,-118.5535736
"12616 Pioneer Blvd Norwalk, CA 90650 US",33.8931033,-118.0825182
"1555 East F St Oakdale, CA 95361 US",37.7730036,-120.8294669
"40650 Hwy 41 Oakhurst, CA 93644 US",37.3375581,-119.6452416
"601 Hegenberger Oakland, CA 94621 US",37.745363,-122.1965532
"2273 El Camino Real Oceanside, CA 92054 US",33.18349355,-117.3283271
"487 Harbor Dr Oceanside, CA 92054 US",33.2089818,-117.3877214
"605 College Blvd Oceanside, CA 92057 US",33.24320185,-117.2903884
"1409 E 4th St Ontario, CA 91764 US",34.0784218,-117.6257929
"2421 S. Archibald Ontario, CA 91761 US",34.0296996,-117.5925422
"502 N Vineyard Ontario, CA 91764 US",34.0684616,-117.6106446
"715 N Milliken Ave Ontario, CA 91764 US",34.0697141,-117.5588743
"1695 E Lincoln Ave Orange, CA 92865 US",33.8353386,-117.8366091
"3000 W. Chapman Ave. Orange, CA 92868 US",33.7878828,-117.8709655
"8841 Greenback Ln Orangevale, CA 95662 US",38.678433,-121.225609
"2470 Oro Dam Blvd Oroville, CA 95966 US",39.5056793,-121.5470321
"1255 N Oxnard Blvd Oxnard, CA 93030 US",34.2180681,-119.177033
"800 Garnet Ave. Pacific Beach, CA 92109 US",32.800889,-117.2358433
"1201 N Palm Canyon Dr Palm Springs, CA 92262 US",33.8396367,-116.5470876
"1257 Rancho Vista Blvd Palmdale, CA 93551 US",34.6018531,-118.1537472
"37050 47th St E Palmdale, CA 93552 US",34.5470272,-118.0452952
"8500 Van Nuys Blvd. Panorama City, CA 91402 US",34.226824,-118.4499808
"2627 E Colorado Blvd Pasadena, CA 91107 US",34.1461532,-118.0933258
"1310 24th St. Paso Robles, CA 93446 US",35.6418049,-120.6854369
"15001 Rogers Rd Patterson, CA 95363 US",37.4662885,-121.17623
"570 E 4th St Perris, CA 92570 US",33.7826965,-117.2169267
"4986 Petaluma Blvd Petaluma, CA 94952 US",38.2690026,-122.670168
"8600 E Whittier Blvd Pico Rivera, CA 90660 US",34.0029489,-118.0884632
"611 Five Cities Dr. Pismo Beach, CA 93449 US",35.1351616,-120.6213891
"108 E Orangethorpe Ave Placentia, CA 92870 US",33.863511,-117.8685591
"99 Fair Lane Dr Placerville, CA 95667 US",38.7228598,-120.8306197
"612 Contra Costa Blvd. Pleasant Hill, CA 94523 US",37.9528958,-122.0600765
"1504 Gillette Rd Pomona, CA 91768 US",34.0737811,-117.7788648
"3012 W Temple Ave Pomona, CA 91766 US",34.0410845,-117.798145
"3801 W Temple Ave Bldg #52 Pomona, CA 91765 US",34.0500109,-117.815212
"2511 N Ventura Rd Port Hueneme, CA 93041 US",34.1515944,-119.1954261
"1262 W Henderson Ave Porterville, CA 93257 US",36.0803674,-119.0437971
"360 Montgomery Ave Porterville, CA 93257 US",36.0509276,-119.0240281
"1946 Main St Ramona, CA 92065 US",33.0323017,-116.8837046
"2474 Sunrise Blvd Rancho Cordova, CA 95670 US",38.6012253,-121.2662773
"11899 Foothills Blvd Rancho Cucamonga, CA 91730 US",34.1060239,-117.545978
"29019 Western Avenue Rancho Palos Verdes, CA 90275 US",33.7546233,-118.3096527
"48 Antelope Blvd Red Bluff, CA 96080 US",40.1791969,-122.2293234
"2608 Hilltop Dr. Redding, CA 96002 US",40.5700719,-122.3592088
"542 E Cypress St Redding, CA 96002 US",40.5714776,-122.3616247
"1180 Alabama St. Redlands, CA 92374 US",34.068071,-117.2079798
"9 W Redlands Blvd Redlands, CA 92373 US",34.0573433,-117.1864227
"1760 Aviation Blvd Redondo Beach, CA 90278 US",33.8754637,-118.3801159
"1201 Broadway Redwood City, CA 94063 US",37.4859267,-122.2372102
"7600 Reseda Blvd Reseda, CA 91335 US",34.1897551,-118.5360339
"1377 W Foothill Blvd Rialto, CA 92376 US",34.1067667,-117.374748
"104 China Lake Blvd Ridgecrest, CA 93555 US",35.623052,-117.669296
"1501 N Jack Tone Road Ripon, CA 95366 US",37.7556226,-121.1441918
"1245 University Ave. Riverside, CA 92507 US",33.9756017,-117.3571771
"2955 Van Buren Blvd Riverside, CA 92503 US",33.9545296,-117.4558208
"3530 Madison St Riverside, CA 92504 US",33.9373372,-117.406111
"4460 Rocklin Rd Rocklin, CA 95677 US",38.7892655,-121.2323577
"122 Sunrise Ave. Roseville, CA 95661 US",38.7436138,-121.2663677
"5181 Foothills Blvd. Roseville, CA 95747 US",38.7622405,-121.3101433
"1425 S. Nogales Rowland Heights, CA 91748 US",33.9914797,-117.8892856
"6875 Valley Way Rubidoux, CA 92509 US",34.0107158,-117.4368314
"1322 Howe Ave. Sacramento, CA 95825 US",38.5868777,-121.4154604
"300 Bercut Drive Sacramento, CA 95814 US",38.594016,-121.503724
"3520 Auburn Blvd. Sacramento, CA 95821 US",38.6226,-121.4210752
"4441 E Commerce Way Sacramento, CA 95834 US",38.6530578,-121.5263316
"5120 Interstate Ave Sacramento, CA 95842 US",38.6600781,-121.3625326
"5460 Florin Rd Sacramento, CA 95823 US",38.4961246,-121.4617208
"7401 Elsie Ave. Sacramento, CA 95828 US",38.4743413,-121.4183651
"7900 College Town Dr. Sacramento, CA 95826 US",38.5550162,-121.4100021
"4324 Salida Blvd Salida, CA 95368 US",37.707856,-121.082447
"1255 De La Torre Salinas, CA 93905 US",36.6597044,-121.6212914
"2005 N Main Street Salinas, CA 93906 US",36.705704,-121.653142
"975 E Blanco Rd Salinas, CA 93901 US",36.652685,-121.647023
"5975 N Palm Ave San Bernardino, CA 92407 US",34.1893356,-117.3618888
"702 E Highland Ave San Bernardino, CA 92404 US",34.1361381,-117.27219
"529 Avenida Pico San Clemente, CA 92672 US",33.4329315,-117.6312347
"10430 Friars Road San Diego, CA 92120 US",32.7914862,-117.0986531
"1065 Camino Del Rio San Diego, CA 92108 US",32.7641409,-117.1537469
"1601 Rosecrans St. San Diego, CA 92106 US",32.741852,-117.214546
"16686 Bernardo Center Dr. San Diego, CA 92128 US",33.0163674,-117.0767246
"2420 Coronado Ave San Diego, CA 92154 US",32.5764858,-117.0851751
"2445 El Cajon Blvd San Diego, CA 92104 US",32.7550408,-117.1378462
"3704 Camino Del Rio W San Diego, CA 92110 US",32.7552187,-117.2051737
"3920 W. Point Loma San Diego, CA 92110 US",32.7551049,-117.2206771
"4280 Clairemont Mesa Blvd San Diego, CA 92117 US",32.832576,-117.201648
"4365 University Ave San Diego, CA 92105 US",32.7494269,-117.1004867
"5445 Kearny Villa Rd. San Diego, CA 92123 US",32.8322348,-117.1378269
"6908 Miramar Road San Diego, CA 92121 US",32.8787066,-117.1673573
"6970 Alvarado San Diego, CA 92120 US",32.7740876,-117.047685
"7676 Friars Rd. San Diego, CA 92108 US",32.7724579,-117.1584083
"9898 Mira Mesa Blvd. San Diego, CA 92131 US",32.9172506,-117.1134618
"548 W Arrow Hwy San Dimas, CA 91773 US",34.1029435,-117.8142387
"1041 Truman Street San Fernando, CA 91340 US",34.2804684,-118.4380026
"495 Beach St San Francisco, CA 94133 US",37.8066876,-122.4167447
"816 Mission St San Francisco, CA 94103 US",37.7843083,-122.4050638
"1290 North State St San Jacinto, CA 92583 US",33.8045006,-116.9726234
"1001 E Capitol San Jose, CA 95121 US",37.299287,-121.8237329
"1015 Blossom Hill Rd San Jose, CA 95123 US",37.2509316,-121.8710689
"1140 Hillsdale Ave San Jose, CA 95118 US",37.2693757,-121.8996361
"1390 South First St. San Jose, CA 95110 US",37.3168177,-121.8738176
"1490 N 1st St San Jose, CA 95112 US",37.3650004,-121.9119457
"2077 N 1st St San Jose, CA 95131 US",37.37351135,-121.9191265
"2401 Lanai Ave San Jose, CA 95122 US",37.3204496,-121.8290629
"2484 Berryessa Rd San Jose, CA 95133 US",37.372527,-121.8747177
"910 Saratoga Ave San Jose, CA 95129 US",37.288042,-121.995869
"15015 Freedom Ave San Leandro, CA 94578 US",37.7086155,-122.1240579
"1803 Marina Blvd San Leandro, CA 94577 US",37.7138822,-122.1585273
"208 Madonna Rd. San Luis Obispo, CA 93405 US",35.2642407,-120.6766283
"731 W San Marcos Blvd San Marcos, CA 92069 US",33.1364535,-117.180202
"2920 S. Norfolk San Mateo, CA 94403 US",37.545455,-122.2853568
"2526 San Pablo San Pablo, CA 94806 US",37.9551377,-122.3301671
"130 E Calle Primero San Ysidro, CA 92173 US",32.5498808,-117.0436286
"536 Academy Ave Sanger, CA 93657 US",36.7081582,-119.5556705
"1501 W 17th St Santa Ana, CA 92706 US",33.7599564,-117.8663792
"2314 E 17th St Santa Ana, CA 92701 US",33.7594127,-117.8332443
"2530 S Bristol Street Santa Ana, CA 92704 US",33.7128295,-117.8857443
"3614 State St Santa Barbara, CA 93105 US",34.4407065,-119.7409255
"1745 El Camino Real Santa Clara, CA 95050 US",37.3523052,-121.9635103
"3715 El Camino Real Santa Clara, CA 95051 US",37.3527938,-121.9983358
"16401 Delone St. Santa Clarita, CA 91387 US",34.4242,-118.4236057
"1515 Ocean St. Santa Cruz, CA 95060 US",36.9820711,-122.0221622
"1019 East Main St. Santa Maria, CA 93454 US",34.9531891,-120.4262576
"1560 Lincoln Blvd Santa Monica, CA 90401 US",34.0168277,-118.4886536
"327 South Palm Ave Santa Paula, CA 93060 US",34.3462538,-119.0689562
"1000 W. Steele Lane Santa Rosa, CA 95403 US",38.4600136,-122.7291558
"115 Baker Ave Santa Rosa, CA 95407 US",38.4219399,-122.7143537
"140 Town Center Pkwy Santee, CA 92071 US",32.8413869,-116.9890361
"2940 Westminster Ave Seal Beach, CA 90740 US",33.759305,-118.0796744
"2763 Highland Ave Selma, CA 93662 US",36.573778,-119.6291608
"5525 N Sepulveda Blvd Sherman Oaks, CA 91411 US",34.1713342,-118.4661866
"2460 N. Sycamore Simi Valley, CA 93065 US",34.280203,-118.7432746
"3064 H De La Rosa Sr. Street Soledad, CA 93960 US",36.4164568,-121.3208459
"5811 E Firestone Blvd South Gate, CA 90280 US",33.9494776,-118.1646749
"2870 S. Lake Tahoe Blvd. South Lake Tahoe, CA 96150 US",38.9339998,-119.977441
"10 Airport Blvd South San Francisco, CA 94080 US",37.6501548,-122.407898
"12924 Beach Blvd. Stanton, CA 90680 US",33.7744708,-117.9923078
"2670 W. March Lane Stockton, CA 95207 US",37.9852906,-121.3369489
"3950 Waterloo Rd Stockton, CA 95215 US",37.9858134,-121.2477912
"4747 Pacific Ave. Stockton, CA 95207 US",38.0023929,-121.3171976
"5033 S Hwy 99 E Frontage Rd Stockton, CA 95215 US",37.9028334,-121.2211476
"642 West Charter Way Stockton, CA 95206 US",37.9366907,-121.296014
"8022 Vineland Ave Sun Valley, CA 91352 US",34.2173039,-118.3703323
"311 S Mathilda Sunnyvale, CA 94086 US",37.3748854,-122.0354421
"814 Ahwanee Ave Sunnyvale, CA 94085 US",37.3961565,-122.0277798
"12861 Encinitas Ave Sylmar, CA 91342 US",34.3014744,-118.4757865
"13201 Gladstone Ave Sylmar, CA 91342 US",34.3101888,-118.4274372
"9000 Magellan Dr. Tehachapi, CA 93561 US",35.1421113,-118.4483894
"28915 Rancho California Road Temecula, CA 92590 US",33.5035727,-117.1884223
"72244 Varner Rd Thousand Palms, CA 92276 US",33.8174497,-116.4013349
"21270 Hawthorne Blvd Torrance, CA 90503 US",33.8566999,-118.3538386
"3060 Sepulveda Blvd. Torrance, CA 90505 US",33.8241838,-118.3414313
"3718 No Tracy Blvd. Tracy, CA 95304 US",37.7636608,-121.4347566
"795 E Prosperity Ave Tulare, CA 93274 US",36.224375,-119.3342403
"1991 Lander Ave Turlock, CA 95380 US",37.4748959,-120.8496274
"1571 El Camino Real Tustin, CA 92780 US",33.73364435,-117.8136347
"73669-91 Twentynine Palms Hwy Twentynine Palms, CA 92277 US",34.1356147,-116.0550204
"105 Pomeroy Ukiah, CA 95482 US",39.1512273,-123.1977918
"825 W Foothill Blvd Upland, CA 91786 US",34.1073712,-117.6620362
"1701 E. Monte Vista Ave Vacaville, CA 95688 US",38.3589961,-121.9878376
"27541 Wayne Mills Place Valencia, CA 91355 US",34.4226487,-118.5798553
"250 Fairgrounds Dr Vallejo, CA 94589 US",38.137861,-122.229883
"4355 Sonoma Blvd. Vallejo, CA 94589 US",38.1323677,-122.2558895
"14445 Sherman Way Van Nuys, CA 91405 US",34.2012205,-118.4375838
"15540 Roscoe Boulevard Van Nuys, CA 91406 US",34.2213931,-118.4714004
"16575 Sherman Way Van Nuys, CA 91406 US",34.2012345,-118.4943117
"2148 E Harbor Blvd. Ventura, CA 93001 US",34.2728003,-119.2843613
"14244 Valley Center Dr Victorville, CA 92392 US",34.5094775,-117.3210407
"200 S Akers St Visalia, CA 93291 US",36.3282608,-119.349274
"2332 South Mooney Visalia, CA 93277 US",36.3267454,-119.3141194
"540 W Vista Way Vista, CA 92083 US",33.1970157,-117.2504121
"1235 Harbor Blvd. W Sacramento, CA 95691 US",38.5766708,-121.5487954
"1804 Highway 46 Wasco, CA 93280 US",35.6019713,-119.3460966
"132 N. Grand Ave West Covina, CA 91791 US",34.0738352,-117.8721296
"645 N Azusa West Covina, CA 91791 US",34.0824876,-117.9081253
"Joe's Truck Plaza 4415 Howard R Westley, CA 95387 US",37.5384264,-121.2635708
"1060 Tiverton Ave Westwood, CA 90024 US",34.0603086,-118.4429839
"11891 Whittier Blvd Whittier, CA 90601 US",33.9797806,-118.049469
"8425 S Pioneer Blvd Whittier, CA 90606 US",33.9678363,-118.0823398
"23857 Clinton Keith Rd. Wildomar, CA 92595 US",33.5856687,-117.2534026
"1440 W Pacific Coast Wilmington, CA 90744 US",33.7907759,-118.2837732
"1568 E. Main St. Woodland, CA 95776 US",38.676814,-121.7484703
"39050 Bernard Street Woodland, CA 95695 US",38.7006287,-121.7829098
"20137 Ventura Blvd. Woodland Hills, CA 91364 US",34.1685062,-118.6058293
"22027 Burbank Blvd. Woodland Hills, CA 91364 US",34.1719633,-118.6065834
"22611 Oak Crest Circle Yorba Linda, CA 92887 US",33.8726393,-117.7441142
"33540 Yucaipa Blvd Yucaipa, CA 92399 US",34.0339655,-117.0749691
"56895 29 Palms Hwy Yucca Valley, CA 92284 US",34.1202196,-116.4230948
"900 Hwy 95 North Beatty, NV 89003 US",36.9143335,-116.7536583
"2299 N. Carson St. Carson City, NV 89706 US",39.1814829,-119.7670671
"2405 Moutain City Hwy Elko, NV 89801 US",40.8366336,-115.790164
"501 Aultman Street Ely, NV 89301 US",39.2479193,-114.892643
"480 Truck Inn Way Fernley, NV 89408 US",39.6155993,-119.2180783
"1201 W Warm Springs Rd Henderson, NV 89014 US",36.0563597,-115.0763268
"1 Main Street Jean, NV 89019 US",35.7800975,-115.3245769
"1826 S Las Vegas Blvd Las Vegas, NV 89104 US",36.159945,-115.1468156
"2380 E Tropicana Ave Las Vegas, NV 89119 US",36.1004023,-115.1193619
"3001 S Las Vegas Blvd Las Vegas, NV 89109 US",36.1331632,-115.1634412
"3081 S. Maryland Park Las Vegas, NV 89109 US",36.1338856,-115.1373084
"310 N Nellis Blvd Las Vegas, NV 89110 US",36.1999323,-115.0622415
"3330 W Tropicana Avenue Las Vegas, NV 89103 US",36.1016875,-115.1849824
"3397 S Las Vegas Blvd Las Vegas, NV 89109 US",36.1206721,-115.1716746
"3771 S Las Vegas Blvd Las Vegas, NV 89109 US",36.104192,-115.172249
"450 Fremont Street Las Vegas, NV 89101 US",36.1699879,-115.1406844
"5045 W Tropicana Las Vegas, NV 89103 US",36.1002514,-115.2098938
"5318 Boulder Highway Las Vegas, NV 89122 US",36.1061302,-115.0577738
"5585 Simmons St Las Vegas, NV 89031 US",36.2611589,-115.1803484
"6300 W Charleston #110 Las Vegas, NV 89102 US",36.159466,-115.2305793
"7071 W Craig Rd #101 Las Vegas, NV 89129 US",36.2384851,-115.248178
"7200 S Las Vegas Blvd Las Vegas, NV 89119 US",36.0680691,-115.1722598
"7341 W Lake Mead Blvd Las Vegas, NV 89128 US",36.1956125,-115.2524125
"8000 W Sahara Ave Las Vegas, NV 89117 US",36.1441082,-115.2746125
"9310 W. Tropicana Ave Las Vegas, NV 89147 US",36.1006521,-115.2957245
"9320 S Eastern Ave Las Vegas, NV 89123 US",36.0198143,-115.1180415
"2400 North Rancho Dr North Las Vegas, NV 89130 US",36.2015702,-115.1951924
"3230 Losee Rd North Las Vegas, NV 89030 US",36.2182795,-115.1259921
"4280 W Craig Rd North Las Vegas, NV 89031 US",36.2396427,-115.1978398
"240 S. Nevada Hwy. 160 Pahrump, NV 89048 US",36.2164992,-115.9935945
"31900 S Las Vegas Blvd. Primm, NV 89019 US",35.6129549,-115.385646
"1100 E Plumb Lane Reno, NV 89502 US",39.505703,-119.7855412
"680 N. Wells Ave. Reno, NV 89512 US",39.5376129,-119.8032881
"205 Nugget Ave. Sparks, NV 89431 US",39.5329616,-119.7402043
"7214 Richmond Hwy Alexandria, VA 22306 US",38.7602538,-77.0845364
"1401 Tintern St Chesapeake, VA 23320 US",36.76463465,-76.25284733
"12441 Redwater Creek Rd Chester, VA 23831 US",37.3553216,-77.4078142
"1530 Rest Church Rd Clear Brook, VA 22624 US",39.2901998,-78.0868656
"801 South Ave Colonial Heights, VA 23834 US",37.244079,-77.390695
"16102 Theme Park Way Doswell, VA 23047 US",37.8435094,-77.4497424
"10473 Lee Hwy Fairfax, VA 22030 US",38.8519126,-77.3299773
"139 Factory Outlet Dr Fort Chiswell, VA 24360 US",36.946085,-80.943564
"5325 Jefferson Davis Fredericksburg, VA 22408 US",38.2442213,-77.499854
"1040 W Mercury Blvd Hampton, VA 23666 US",37.043559,-76.38156565
"5111 Oaklawn Blvd Hopewell, VA 23860 US",37.281361,-77.305036
"8201 Sudley Rd Manassas, VA 20109 US",38.7779321,-77.5063903
"250 Conicville Blvd. Mt Jackson, VA 22842 US",38.761585,-78.632499
"11161 Research Plaza Way Richmond, VA 23236 US",37.5050244,-77.6013318
"6598 W. Broad Street Richmond, VA 23230 US",37.585648,-77.498495
"3429 Orange Ave Roanoke, VA 24012 US",37.3020568,-79.8921763
"24279 Roger Clark Blvd Ruther Glen, VA 22546 US",37.9334236,-77.4722157
"2039 W Main St Salem, VA 24153 US",37.290761,-80.070238
"10404 Blue Star Hwy Stony Creek, VA 23882 US",36.9476965,-77.3927354
"119 Hite Lane Strasburg, VA 22657 US",39.003201,-78.33682
"198 Newtown Rd Virginia Beach, VA 23462 US",36.8438506,-76.18442708
"3337 Virginia Beach Blvd Virginia Beach, VA 23452 US",36.8414324,-76.08801085
"7323 Comfort Inn Drive Warrenton, VA 20187 US",38.7320261,-77.7724877
"409 Bypass Rd Williamsburg, VA 23185 US",37.2795515,-76.6905338
"1601 Martinsburg Winchester, VA 22603 US",39.217209,-78.1398369
"3249 Chapman Road Wytheville, VA 24382 US",36.94694,-81.057638
"14400 E 6th Ave Aurora, CO 80011 US",39.7252708,-104.8211479
"1505 S Havana Aurora, CO 80012 US",39.688975,-104.866396
"16751 E 32nd Ave Aurora, CO 80011 US",39.7629271,-104.7929071
"3205 I-70 Business Loop Clifton, CO 81520 US",39.0892487,-108.4563129
"2059 E Main St Cortez, CO 81321 US",37.3485013,-108.5595333
"12090 E. 40th Ave. Denver, CO 80239 US",39.7729011,-104.7898107
"1605 NW Federal Blvd Denver, CO 80204 US",39.7430191,-105.0256373
"900 West Alameda Ave. Denver, CO 80223 US",39.7107896,-104.9972464
"666 Camino Del Rio Durango, CO 81301 US",37.2697185,-107.8846317
"275 W Hampden Ave Englewood, CO 80110 US",39.6533063,-104.995266
"420 Centro Way Fort Collins, CO 80524 US",40.5818644,-105.0070351
"3291 Youngfield Service Road Golden, CO 80401 US",39.7633625,-105.144332
"710 Horizon Dr Grand Junction, CO 81506 US",39.1015062,-108.5526317
"1164 Sargent Jon Stiles Drive Highlands Ranch, CO 80129 US",39.5483371,-105.0031626
"3580 So Wadsworth Lakewood, CO 80235 US",39.6503521,-105.0806788
"565 Union Blvd. Lakewood, CO 80228 US",39.7240674,-105.1327657
"2455 6th St Limon, CO 80828 US",39.268351,-103.705481
"1515 Venture Way Montrose, CO 81401 US",38.4561104,-107.8656138
"350 East 104th Ave. Thornton, CO 80233 US",39.884824,-104.954258
"9930 W. 49th Ave. Wheat Ridge, CO 80033 US",39.7852287,-105.10878
"2900 Denali Anchorage, AK 99503 US",61.1940479,-149.8775239
"3850 Debarr Road Anchorage, AK 99508 US",61.2094574,-149.8067113
"1929 Airport Way Fairbanks, AK 99701 US",64.8368344,-147.7787435
"224 Daniel Payne Drive N Birmingham, AL 35207 US",33.5620954,-86.8306883
"5931 Alabama Highway #157 Cullman, AL 35056 US",34.2063878,-86.8741474
"2190 Ross Clark Circle Dothan, AL 36301 US",31.1913221,-85.40063164
"900 Tyson Road Hope Hull, AL 36043 US",32.1942799,-86.4195928
"4874 University Drive Huntsville, AL 35816 US",34.7383524,-86.6550526
"2209 SE Walton Blvd Bentonville, AR 72712 US",36.3355937,-94.1878867
"5910 Rogers Ave Ft Smith, AR 72903 US",35.369097,-94.385147
"310 S Shackleford Dr Little Rock, AR 72211 US",34.7507003,-92.3946821
"43 Bradley Cove Rd Russellville, AR 72802 US",35.2838277,-93.0914423
"4861 W Sunset Ave Springdale, AR 72762 US",36.1749775,-94.184256
"5104 N State Line Texarkana, AR 71854 US",33.4729794,-94.0422118
"8300 State Highway 108 Texarkana, AR 71854 US",33.5136982,-93.9481058
"3000 Service Loop Rd West Memphis, AR 72301 US",35.1541671,-90.1438996
"361 S. Main St. Us Rt 7 So. Rutland, VT 05701 US",43.585065,-72.967466
"730 Shelburne Rd South Burlington, VT 05403 US",44.439859,-73.2101059
"140 Racehorse Drive Alorton, IL 62205 US",38.5759524,-90.0989178
"17 W Algonquin Rd Arlington Heights, IL 60005 US",42.045819,-87.9869083
"4330 Fox Valley Aurora, IL 60504 US",41.7613466,-88.2096304
"521 N. Randall Rd Batavia, IL 60510 US",41.8599332,-88.3404425
"1130 S.Illinois St. Belleville, IL 62220 US",38.469818,-89.983254
"701 Eldorado Rd Bloomington, IL 61704 US",40.481534,-88.950108
"126 Frontage Road Bolingbrook, IL 60440 US",41.6767964,-88.0827652
"1303 Armour Road Bourbonnais, IL 60914 US",41.1631136,-87.8520342
"1380 Torrence Avenue Calumet City, IL 60409 US",41.6064366,-87.5590295
"1915 W Sycamore Carbondale, IL 62901 US",37.7300666,-89.2412413
"363 S. Schmale Road Carol Stream, IL 60188 US",41.8934938,-88.102879
"200 Springhill Dr Carpentersville, IL 60110 US",42.1061105,-88.2932313
"702 W Town Center Blvd. Champaign, IL 61822 US",40.14322325,-88.25478081
"522 Ramada Blvd Collinsville, IL 62234 US",38.6784074,-90.0122239
"1307 N Keller Dr Effingham, IL 62401 US",39.12817,-88.559182
"1701 West Evergreen Avenue Effingham, IL 62401 US",39.1363269,-88.5643397
"2447 Mannheim Road Franklin Park, IL 60131 US",41.9452634,-87.8857168
"815 Hwy 24 W Gilman, IL 60938 US",40.7669477,-87.9750462
"27 Junction Dr Glen Carbon, IL 62034 US",38.776379,-89.954511
"6429 Grand Ave Gurnee, IL 60031 US",42.382231,-87.9513784
"1086 Lake St Hanover Park, IL 60133 US",41.98676,-88.144002
"7627 W. 95th Street Hickory Hills, IL 60457 US",41.7185823,-87.8166638
"2063 Skokie Valley Highland Park, IL 60035 US",42.1905543,-87.8260068
"1175 North Roselle Road Hoffman Estates, IL 60169 US",42.041722,-88.0797823
"13240 S. Illinois 47 Huntley, IL 60142 US",42.1368283,-88.4320159
"2531 Plainfield Road Joliet, IL 60435 US",41.5342618,-88.0963632
"343 Civic Road Lasalle, IL 61301 US",41.3678538,-89.095691
"1407 W Hudson Blvd Litchfield, IL 62056 US",39.1755283,-89.6724413
"224 Richmond Ave. E Mattoon, IL 61938 US",39.484815,-88.347019
"8349 West North Avenue Melrose Park, IL 60160 US",41.9078128,-87.8344604
"19099 S Old Lagrange Rd Mokena, IL 60448 US",41.5434656,-87.8481959
"2601 52nd Avenue Moline, IL 61265 US",41.4679087,-90.5359081
"4610 Broadway Mt. Vernon, IL 62864 US",38.3123382,-88.9609024
"1615 N. Main Normal, IL 61761 US",40.5309841,-88.9962527
"4609 N. Harlem Avenue Norridge, IL 60706 US",41.9612708,-87.8072177
"412 S Lincolnway North Aurora, IL 60542 US",41.7910892,-88.3228001
"115 Radio City Dr North Pekin, IL 61554 US",40.6019893,-89.6378347
"737 W Hwy 50 O' Fallon, IL 62269 US",38.5881874,-89.926198
"9217 S. Cicero Ave Oak Lawn, IL 60453 US",41.7004149,-87.7400851
"711 N Harlem Avenue Oak Park, IL 60302 US",41.8871372,-87.8049879
"17 W 660 22nd Street Oakbrook Terrace, IL 60181 US",41.846791,-87.9744668
"20 Orland Square Drive Orland Park, IL 60462 US",41.6212575,-87.8447202
"975 E. Dundee Road Palatine, IL 60074 US",42.1391934,-88.0093863
"1310 E. Chain Of Rocks Rd. Pontoon Beach, IL 62040 US",38.761494,-90.079001
"4111 Timberlake Drive Pontoon Beach, IL 62040 US",38.746504,-90.072626
"7375 E State St Rockford, IL 61108 US",42.2653432,-89.0092105
"1812 W Main St Salem, IL 62881 US",38.624479,-88.971008
"4824 No. River Road Schiller Park, IL 60176 US",41.9669338,-87.8621174
"16049 Willowbrook Rd South Beloit, IL 61080 US",42.4903114,-89.0001435
"2599 W. Wabash Avenue Springfield, IL 62704 US",39.7644124,-89.7057172
"1104 Tuscola Blvd Tuscola, IL 61953 US",39.7911067,-88.2685718
"4 Interstate Drive Vandalia, IL 62471 US",38.9709477,-89.135768
"890 Milwaukee Avenue Vernon Hills, IL 60061 US",42.2292129,-87.9420369
"959 N Ilinois Rt 3 Waterloo, IL 62298 US",38.3597565,-90.1542297
"3890 N. Point Boulevard Waukegan, IL 60085 US",42.3464501,-87.8976788
"7737 S. Kingery Hwy Willowbrook, IL 60527 US",41.7482301,-87.9433784
"3026 Washington Rd Augusta, GA 30907 US",33.5116228,-82.0469343
"2990 US Hwy 17 South Brunswick, GA 31523 US",31.1403646,-81.5780711
"370 Millennium Blvd Brunswick, GA 31525 US",31.2452874,-81.5029789
"309 Georgia Hwy 49 N Byron, GA 31008 US",32.6621158,-83.7413966
"3239 Macon Rd Columbus, GA 31907 US",32.5175491,-84.8818296
"2115 E 16th Ave Cordele, GA 31015 US",31.9612397,-83.7589889
"1701 Browns Bridge Rd Gainesville, GA 30501 US",34.2857842,-83.8429426
"3600 GA-77 Greensboro, GA 30642 US",33.5466245,-83.0782644
"1125 Bucksnort Road Jackson, GA 30233 US",33.2074181,-84.0642905
"1222 Boone St Kingsland, GA 31548 US",30.7902339,-81.6607156
"7001 Lake Park - Bellville Rd Lake Park, GA 31636 US",30.6410018,-83.1896228
"2657 Panola Road Lithonia, GA 30058 US",33.7109957,-84.1677893
"1020 Tanger Dr. Locust Grove, GA 30248 US",33.3502439,-84.1236385
"5534 Jimmy Carter Blvd Norcross, GA 30093 US",33.924717,-84.2162388
"288 Resaca Beach Blvd Resaca, GA 30735 US",34.5764521,-84.9469908
"3944 Highway 17 S Richmond Hill, GA 31324 US",31.9303975,-81.3276728
"1 Gateway Blvd Savannah, GA 31419 US",32.0059593,-81.2801402
"6801 Abercorn St Savannah, GA 31405 US",32.0279502,-81.1082678
"2160 Scenic Highway N. Snellville, GA 30078 US",33.8620881,-84.0174499
"5368 N Henry Blvd Stockbridge, GA 30281 US",33.5440086,-84.2306007
"2925 Lawrenceville Suwanee Rd Suwanee, GA 30024 US",34.0280886,-84.0456072
"1328 St Augustine Rd Valdosta, GA 31602 US",30.8445351,-83.3302968
"1035 James Ave Bedford, IN 47421 US",38.8647275,-86.5190993
"2160 N Walnut St Bloomington, IN 47408 US",39.1768555,-86.53351
"943 E. Lewis & Clark Parkway Clarksville, IN 47129 US",38.3168936,-85.7579087
"812 N. Conner Court Dale, IN 47523 US",38.1841162,-86.9871415
"15876 W. Commerce Rd Daleville, IN 47334 US",40.113871,-85.570449
"19501 Elpers Rd Evansville, IN 47725 US",38.1560586,-87.5514445
"351 N Green River Rd Evansville, IN 47715 US",37.9834289,-87.492753
"3901 Hwy 41 N Evansville, IN 47711 US",38.0130367,-87.5385985
"5212 Weston Rd Evansville, IN 47712 US",37.977187,-87.638291
"8695 Jack Carnes Way N French Lick, IN 47432 US",38.5504861,-86.6191401
"3150 Grant St Gary, IN 46408 US",41.5710138,-87.3560366
"1253 S Park Blvd Greenwood, IN 46143 US",39.6192734,-86.0780372
"844 East 1250 S Haubstadt, IN 47639 US",38.1762456,-87.5514844
"3231 East 181st Street Hebron, IN 46341 US",41.288761,-87.2947797
"2490 Post Rd Indianapolis, IN 46219 US",39.803439,-86.011402
"3512 S Keystone Ave Indianapolis, IN 46227 US",39.7238049,-86.1208526
"4795 Kentucky Ave Indianapolis, IN 46221 US",39.709619,-86.2484249
"6241 Crawfordsville Rd Indianapolis, IN 46224 US",39.8004897,-86.2694646
"6288 E 82nd St Indianapolis, IN 46250 US",39.9057941,-86.0597264
"8808 N Michigan Rd Indianapolis, IN 46268 US",39.9148684,-86.2249084
"8901 US 31 South Indianapolis, IN 46227 US",39.6371298,-86.1272449
"3850 Newton St Jasper, IN 47546 US",38.419303,-86.937891
"4260 State Rd 26 E Lafayette, IN 47905 US",40.4181448,-86.8243678
"1401 Ripley Street Lake Station, IN 46405 US",41.5773716,-87.240071
"1524 W South St Lebanon, IN 46052 US",40.0465166,-86.489773
"720 E 81st St Merrillville, IN 46410 US",41.4718929,-87.3314622
"5800 S Franklin St Michigan City, IN 46360 US",41.6680197,-86.8932994
"1989 South State Road 57 Oakland City, IN 47660 US",38.3275214,-87.3696848
"6171 Melton Dr Portage, IN 46368 US",41.5978227,-87.1747479
"175 South Honeyrun Parkway Scottsburg, IN 47170 US",38.680908,-85.787218
"102 Lee Blvd Shelbyville, IN 46176 US",39.5285638,-85.7435298
"5300 S State Rt 3 Spiceland, IN 47385 US",39.8518601,-85.4134935
"233 S 3rd St Terre Haute, IN 47807 US",39.4356815,-87.4135564
"3442 Us Highway 41 Terre Haute, IN 47802 US",39.425709,-87.415391
"2728 N 6th St Vincennes, IN 47591 US",38.6926101,-87.4993622
"4982 North 350 East Whiteland, IN 46184 US",39.5491214,-86.0373374
"4175 Highway 21 Brooklyn, IA 52211 US",41.6922383,-92.3964787
"11820 Hickman Road Clive, IA 50325 US",41.6133661,-93.78077942
"8200 NW Blvd Davenport, IA 52806 US",41.6002334,-90.6200004
"2705 W Broadway Ardmore, OK 73401 US",34.1741734,-97.1641838
"1255 W Gentry St Checotah, OK 74426 US",35.4759435,-95.539144
"1100 E 2nd St Edmond, OK 73034 US",35.6522955,-97.4651512
"2703 S Country Club Rd El Reno, OK 73036 US",35.503206,-97.972609
"600 S 69 Bypass Mcalester, OK 74501 US",34.916307,-95.74446
"635 South 32nd Street Muskogee, OK 74401 US",35.7280564,-95.4025796
"1617 SW 74th Street Oklahoma City, OK 73159 US",35.3910243,-97.5478492
"3030 South I-35 Service Rd. Oklahoma City, OK 73129 US",35.4344084,-97.4850556
"3130 Douglas Blvd Oklahoma City, OK 73150 US",35.4336967,-97.3699017
"315 S. Meridian Avenue Oklahoma City, OK 73108 US",35.4522312,-97.6010962
"385 Mid America Drive Pryor, OK 74361 US",36.2299412,-95.3386786
"2400 South 4th Route Sayre, OK 73662 US",35.2653022,-99.6407461
"4903 N Harrison Shawnee, OK 74801 US",35.385057,-96.9111299
"121 North 129 East Ave Tulsa, OK 74116 US",36.1617407,-95.8324463
"45 North Sheridan Road Tulsa, OK 74115 US",36.16222955,-95.90408132
"4121 W Anthem Way Anthem, AZ 85086 US",33.8704889,-112.149748
"10623 E Apache Trail Apache Junction, AZ 85120 US",33.4146152,-111.6011105
"825 N Ocotillo Rd Benson, AZ 85602 US",31.9806729,-110.3075232
"441 S. Watson Rd Buckeye, AZ 85326 US",33.4432464,-112.5551336
"1762 Highway 95 Bullhead City, AZ 86442 US",35.1211796,-114.5863758
"1630 W Highway 260 Camp Verde, AZ 86322 US",34.5760365,-111.8814744
"1851 E Florence Blvd Casa Grande, AZ 85122 US",32.8791701,-111.708272
"1750 W Chandler Blvd Chandler, AZ 85224 US",33.3060038,-111.8937992
"7400 W Chandler Blvd Chandler, AZ 85226 US",33.3058204,-111.9684549
"Indian Route 7 Chinle, AZ 86503 US",36.1595414,-109.5761184
"2211 State Route 89A Cottonwood, AZ 86326 US",34.7212815,-111.998835
"401 N Chiricahua Rd Douglas, AZ 85607 US",31.3385761,-109.5605569
"16189 S Sunshine Blvd Eloy, AZ 85131 US",32.7324202,-111.5497465
"2122 S. Milton Road Flagstaff, AZ 86001 US",35.1789292,-111.6606735
"2306 E. Lucky Lane Flagstaff, AZ 86004 US",35.1929185,-111.6229837
"4650 N Highway 89 C-32 Flagstaff, AZ 86004 US",35.2230098,-111.5813273
"17053 E Shea Blvd Fountain Hills, AZ 85268 US",33.5726386,-111.7143815
"1661 E Warner Rd Gilbert, AZ 85296 US",33.3350223,-111.7543025
"3971 South Gilbert Rd Gilbert, AZ 85297 US",33.2779096,-111.7886671
"4303 W Peoria Ave Glendale, AZ 85302 US",33.5820097,-112.1859291
"5161 W Thunderbird Rd Glendale, AZ 85306 US",33.6104421,-112.170736
"9856 W. Camelback Rd. Glendale, AZ 85305 US",33.5089122,-112.2711881
"1218 N Litchfield Rd Goodyear, AZ 85338 US",33.4477864,-112.3582539
"18875 S I-19 Frontage Rd. Green Valley, AZ 85614 US",31.91977,-110.9836046
"2510 Navajo Blvd Holbrook, AZ 86025 US",34.9327628,-110.1361158
"3255 E. Andy Devine Kingman, AZ 86401 US",35.218929,-114.0097929
"3300 E Andy Devine Ave Kingman, AZ 86401 US",35.2196133,-114.0074741
"1620 Mcculloch Blvd N. Lake Havasu City, AZ 86403 US",34.474363,-114.3431234
"1150 S Country Club Mesa, AZ 85210 US",33.3937522,-111.8406103
"1210 E. Main Mesa, AZ 85203 US",33.4154924,-111.8049194
"1330 S Power Rd Mesa, AZ 85206 US",33.3913446,-111.6851692
"683 North Grand Ave Nogales, AZ 85621 US",31.3446895,-110.9314441
"669 Scenic View Dr Page, AZ 86040 US",36.9233171,-111.4727574
"312 S Beeline Hwy Payson, AZ 85541 US",34.2367501,-111.3235258
"8131 W Bell Rd Peoria, AZ 85382 US",33.6377628,-112.2315342
"8737 NW Grand Ave Peoria, AZ 85345 US",33.5885091,-112.2465791
"1401 N 75th Ave Phoenix, AZ 85043 US",33.4516051,-112.2211809
"2120 E Cactus Rd Phoenix, AZ 85022 US",33.5971703,-112.036948
"2525 W Deer Valley Rd Phoenix, AZ 85027 US",33.6837853,-112.1064876
"2717 W Bell Rd Phoenix, AZ 85053 US",33.6394643,-112.1378939
"2801 No. Black Canyon Phoenix, AZ 85009 US",33.4797461,-112.1122
"3160 W. Carefree Phoenix, AZ 85086 US",33.799552,-112.1285464
"3205 E Bell Rd Phoenix, AZ 85032 US",33.6401916,-112.0128891
"3456 W Bethany Home Phoenix, AZ 85017 US",33.5243356,-112.1338834
"4120 N 51st Ave Phoenix, AZ 85031 US",33.5010375,-112.1688648
"5002 North Seventh St Phoenix, AZ 85014 US",33.5095496,-112.0652288
"6700 West Latham Phoenix, AZ 85043 US",33.4610698,-112.2046126
"7000 E Mayo Blvd Phoenix, AZ 85054 US",33.6576228,-111.9282722
"9030 N. Black Canyon Highway Phoenix, AZ 85051 US",33.5649588,-112.1172204
"1230 Gail Gardner Way Prescott, AZ 86305 US",34.5637099,-112.4872256
"7925 E Hwy 69 Prescott Valley, AZ 86312 US",34.585562,-112.3264883
"20995 E. Rittenhouse Rd Queen Creek, AZ 85142 US",33.2527816,-111.6305007
"1758 W. Hunt Highway San Tan Valley, AZ 85143 US",33.1795855,-111.5840163
"3315 N Scottsdale Rd Scottsdale, AZ 85251 US",33.4867254,-111.9257598
"7605 E McDowell Rd Scottsdale, AZ 85257 US",33.4653668,-111.9171826
"9160 E Indian Bend Rd Scottsdale, AZ 85250 US",33.5384756,-111.9111102
"4471 White Mountain Rd Show Low, AZ 85901 US",34.2093227,-110.0230619
"2397 Fry Blvd Sierra Vista, AZ 85635 US",31.5550002,-110.2747554
"392 W Hwy 264 St Michaels, AZ 86511 US",35.659129,-109.113638
"14799 West Grand Ave Surprise, AZ 85374 US",33.6589073,-112.3768956
"16487 W Bell Rd #109 Surprise, AZ 85374 US",33.6390344,-112.3892936
"1343 W. Broadway Tempe, AZ 85282 US",33.4071026,-111.9597809
"1994 W Baseline Rd. Tempe, AZ 85283 US",33.3786991,-111.9689999
"4403 S. Rural Rd. Tempe, AZ 85282 US",33.3847245,-111.9260085
"650 N Scottsdale Rd Tempe, AZ 85281 US",33.4354577,-111.9266705
"825 S 48th St Tempe, AZ 85281 US",33.420865,-111.9765681
"2875 W Highway 70 Thatcher, AZ 85552 US",32.8468471,-109.747407
"2 Legacy Lane Tuba City, AZ 86045 US",36.119744,-111.2273768
"1510 W Valencia Rd Tucson, AZ 85706 US",32.1343282,-110.996789
"2630 E Valencia Rd Tucson, AZ 85706 US",32.1340613,-110.9219249
"3702 E Irvington Rd Tucson, AZ 85714 US",32.1632732,-110.9305656
"4040 E. 22nd St. Tucson, AZ 85711 US",32.2065905,-110.9057616
"4920 W Ina Rd Tucson, AZ 85741 US",32.3380679,-111.0696477
"5000 Oracle Rd Tucson, AZ 85704 US",32.29782,-110.9776913
"555 N Freeway Tucson, AZ 85745 US",32.2303676,-110.9837513
"6484 E Broadway Blvd. Tucson, AZ 85710 US",32.2205629,-110.8553334
"1010 N Tegner Rd Wickenburg, AZ 85390 US",33.9815027,-112.7388958
"400 Transcon Lane Winslow, AZ 86047 US",35.0138382,-110.6765285
"11121 Grand Ave. Youngtown, AZ 85363 US",33.6052478,-112.3001687
"11255 E. South Frontage Rd Yuma, AZ 85367 US",32.6694884,-114.440836
"1435 E 16th St. Yuma, AZ 85365 US",32.6980021,-114.6056273
"2580 Airport Way Boise, ID 83705 US",43.5698756,-116.2131977
"611 N. Overland Ave. Burley, ID 83318 US",42.5625077,-113.7915183
"3512 Franklin Road Caldwell, ID 83605 US",43.6616095,-116.6544959
"4310 Yellowstone Ave Chubbuck, ID 83202 US",42.9122837,-112.4662226
"2300 N 4th St Coeur D' Alene, ID 83814 US",47.6983078,-116.7803699
"950 Lindsey Blvd Idaho Falls, ID 83401 US",43.5038021,-112.0516529
"3155 E. Fairview Avenue Meridian, ID 83642 US",43.6188093,-116.3567251
"607 Northside Blvd Nampa, ID 83687 US",43.5984364,-116.5735231
"1670 Schneidmiller Ave Post Falls, ID 83854 US",47.7117142,-116.9206935
"291 Pole Line Road Twin Falls, ID 83301 US",42.5923514,-114.4756273
"61 Newtown Rd Danbury, CT 06810 US",41.4055167,-73.4201046
"111 Elm St Enfield, CT 06082 US",41.9984177,-72.5815835
"539 Flatbush Ave Hartford, CT 06106 US",41.7428103,-72.7104446
"655 S Main St Rt 17 Middletown, CT 06457 US",41.5384966,-72.6545649
"322 S Frontage Road I-95 New London, CT 06320 US",41.3677366,-72.1138312
"621 Queen St Southington, CT 06489 US",41.6344333,-72.8736338
"35 Talcotville Rd Vernon, CT 06066 US",41.8272986,-72.4984295
"939 Wolcott St. Waterbury, CT 06705 US",41.5706239,-73.0050262
"487 Sawmill Rd West Haven, CT 06516 US",41.271306,-72.9743824
"28 Flat Rock Place Westbrook, CT 06498 US",41.2895131,-72.4392351
"1298 Silas Deane Hwy Wethersfield, CT 06109 US",41.7263397,-72.6683368
"211 Court St Auburn, ME 04210 US",44.098314,-70.2306359
"123 Civic Center Dr Augusta, ME 04330 US",44.337675,-69.7917042
"120 Haskell Rd Bangor, ME 04401 US",44.8324135,-68.7399093
"75 High St Ellsworth, ME 04605 US",44.5420664,-68.4190612
"1091-1107 Congress St Portland, ME 04102 US",43.6552963,-70.2852408
"1220 Brighton Ave Portland, ME 04102 US",43.6679013,-70.2993254
"2095 West St Annapolis, MD 21401 US",38.9774821,-76.4992793
"1995 E Joppa Rd Baltimore, MD 21234 US",39.3982517,-76.5442245
"781 Sunburst Highway Cambridge, MD 21613 US",38.5712262,-76.0632594
"8424 Baltimore Ave College Park, MD 20740 US",38.9782659,-76.9379885
"1412 Merrit Boulevard Dundalk, MD 21222 US",39.2756374,-76.5041548
"8493 Ocean Gateway Easton, MD 21601 US",38.786634,-76.0601034
"1803 Edgewood Rd Edgewood, MD 21040 US",39.4172865,-76.2926016
"6400 Ridge Rd Eldersburg, MD 21784 US",39.3988491,-76.9339229
"1207 West Patrick St Frederick, MD 21701 US",39.419159,-77.4530214
"100 East Cedar Lane Fruitland, MD 21826 US",38.3265703,-75.61478479
"6302 Ritchie Hwy Glen Burnie, MD 21061 US",39.1653052,-76.622613
"1630 Dual Hwy Hagerstown, MD 21740 US",39.60861,-77.6875761
"1365 Mellon Rd Hanover, MD 21076 US",39.1605539,-76.7118798
"314 Washington Blvd Laurel, MD 20707 US",39.104997,-76.842532
"1239 National Hwy Lavale, MD 21502 US",39.6371243,-78.8380758
"19290 Montgomery Village Ave Montgomery Village, MD 20886 US",39.17194155,-77.20425897
"1 Center Drive North East, MD 21901 US",39.6267456,-75.950694
"1000 Starlite Plaza Oakland, MD 21550 US",39.4188549,-79.4009334
"11201 Coastal Hwy Ocean City, MD 21842 US",38.3737061,-75.0698726
"41 Heather Lane Perryville, MD 21903 US",39.588708,-76.066226
"405 Punkin Court Salisbury, MD 21804 US",38.3668736,-75.5403336
"2975 Crain Highway Waldorf, MD 20601 US",38.6581755,-76.8742525
"400 Englar Rd Westminster, MD 21157 US",39.586132,-76.9880079
"467 Memorial Dr Chicopee Falls, MA 01020 US",42.1706835,-72.5768076
"2173 Northampton St Holyoke, MA 01040 US",42.1868627,-72.6302659
"160 Winthrop Ave Lawrence, MA 01843 US",42.685526,-71.141335
"38 Commercial Rd Leominster, MA 01453 US",42.531982,-71.7422
"1284 Boston Road Springfield, MA 01119 US",42.1277326,-72.5307212
"494 Lincoln St Worcester, MA 01605 US",42.292701,-71.778908
"1681 Home Ave Akron, OH 44310 US",41.116056,-81.485298
"2943 S. Arlington Rd Akron, OH 44312 US",40.9913939,-81.4916376
"900 N. Leavitt Avenue Amherst, OH 44001 US",41.416826,-82.209581
"738 State Rt 250 E Ashland, OH 44805 US",40.8574036,-82.2319466
"2349 Center Road Austinburg, OH 44010 US",41.834349,-80.855092
"4927 Mahoning Ave Austintown, OH 44515 US",41.09974075,-80.7480694
"420 E Main St Beaverdam, OH 45808 US",40.8325475,-83.9667662
"7735 State Rd Rt 37 Berkshire, OH 43074 US",40.267734,-82.924768
"154 Boardman-Canfield Rd Boardman Twp, OH 44512 US",41.0247747,-80.6679782
"2031 Southgate Parkway Cambridge, OH 43725 US",40.0082731,-81.5786606
"4646 Tuscarawas Canton, OH 44708 US",40.800736,-81.390902
"11377 Bellflower Road Case Western Reserve University Cleveland, OH 44106 US",41.5120059,-81.6060457
"4331 W. 150th Street Cleveland, OH 44135 US",41.436784,-81.8005844
"6850 Brook Park Road Cleveland, OH 44129 US",41.4190743,-81.7322757
"3025 Olentangy River Road Columbus, OH 43202 US",40.0274447,-83.0279339
"640 Tillotson St Elyria, OH 44035 US",41.399583,-82.113122
"1051 Interstate Court Findlay, OH 45840 US",41.0593222,-83.6707618
"1750 Cedar Street Fremont, OH 43420 US",41.363918,-83.111398
"6207 Wilson Mills Road Highland Heights, OH 44143 US",41.538988,-81.478087
"2226 North Main Hubbard, OH 44425 US",41.18294,-80.571051
"6100 Rockside Rd. Independence, OH 44131 US",41.3971011,-81.6542336
"9935 State Route 41 Jeffersonville, OH 43128 US",39.5867887,-83.4987507
"720 N Lexington-Springmill Rd Mansfield, OH 44906 US",40.7718792,-82.589927
"1050 Mt. Vernon Ave. Marion, OH 43302 US",40.5806166,-83.1064223
"3105 Medina Road Medina Township, OH 44256 US",41.137899,-81.828939
"7700 Mentor Avenue Mentor, OH 44060 US",41.6645076,-81.3476208
"10480 Baltimore Millersport, OH 43046 US",39.9427105,-82.5984992
"1256 W. High Extension New Philadelphia, OH 44663 US",40.4927905,-81.4730827
"3960 Everhard Road NW North Canton, OH 44709 US",40.859644,-81.417153
"25912 Lorain Road North Olmsted, OH 44070 US",41.425118,-81.898337
"8111 Day Dr Parma, OH 44129 US",41.3804917,-81.7411151
"26415 Warns Rd Perrysburg, OH 43551 US",41.5342028,-83.4602852
"1122 Buck Road Rossford, OH 43460 US",41.586886,-83.568151
"68296 Red Roof Lane St Clairsville, OH 43950 US",40.0750638,-80.8687217
"9449 State Road 14 Streetsboro, OH 44241 US",41.2424943,-81.3545561
"315 W. Market Street Tiffin, OH 44883 US",41.1127434,-83.1912043
"6920 W. Central Ave. Toledo, OH 43615 US",41.6773011,-83.6304474
"34725 Euclid Avenue Willoughby, OH 44094 US",41.622138,-81.4491389
"4020 Belmont Ave Youngstown, OH 44505 US",41.141101,-80.665506
"10 Airport Rd Zanesville, OH 43701 US",39.9653875,-81.8969351
"255 N 1100 West Cedar City, UT 84720 US",37.6821388,-113.0777214
"1605 East Saddleback Blvd Lake Point, UT 84074 US",40.6859579,-112.2669373
"991 N 400 W Layton, UT 84041 US",41.0752521,-111.9760758
"101 N. 1200th East Lehi, UT 84043 US",40.3894756,-111.8274197
"1007 N. Main St. #140 Logan, UT 84341 US",41.7504534,-111.8348467
"401 W 7200 S Midvale, UT 84047 US",40.6206483,-111.9015303
"7051 S 1300 E Midvale, UT 84047 US",40.613061,-111.8563537
"989 N Hwy 191 Moab, UT 84532 US",38.5889673,-109.5620185
"420 W 4500 S Murray, UT 84123 US",40.6748372,-111.9026884
"1597 S Main St Nephi, UT 84648 US",39.685639,-111.8364249
"1250 Washington Blvd Ogden, UT 84404 US",41.2431837,-111.9695155
"485 N State St Orem, UT 84057 US",40.3118494,-111.7015409
"6560 N. Landmark Dr. Park City, UT 84098 US",40.7263386,-111.5461545
"1680 N 200 W Provo, UT 84601 US",40.2364458,-111.6820318
"4029 Riverdale Rd. Riverdale, UT 84405 US",41.1902751,-111.9815814
"1602 S State St Salina, UT 84654 US",38.9342894,-111.8545784
"1701 West N Temple Salt Lake City, UT 84116 US",40.7711697,-111.9397393
"2025 S 900 W Salt Lake City, UT 84104 US",40.7494659,-111.9167767
"250 W 500 S Salt Lake City, UT 84101 US",40.758477,-111.8984745
"1516 N Redwood Rd Saratoga Springs, UT 84045 US",40.3896511,-111.9159499
"11511 4000 West #102 South Jordan, UT 84095 US",40.5426933,-111.9848552
"5805 S Harrison Blvd South Ogden, UT 84403 US",41.1573716,-111.9402336
"592 Kirby Lane Spanish Fork, UT 84660 US",40.1242246,-111.6442444
"1460 N 1750 W Springville, UT 84663 US",40.1874931,-111.6409511
"1215 S Main St St George, UT 84770 US",37.0874525,-113.5830839
"155 N 1000 East St St George, UT 84770 US",37.110851,-113.5623907
"925 N Main St Tooele, UT 84074 US",40.5619776,-112.2963875
"2341 W Main St Tremonton, UT 84337 US",41.7115256,-112.173873
"2097 W. Highway 40 Vernal, UT 84078 US",40.4361563,-109.5679283
"1172 W 2100 St West Haven, UT 84401 US",41.2306902,-112.0071995
"1203 Drury Lane Arnold, MO 63010 US",38.4442305,-90.3778926
"1105 N 7 Hwy Blue Springs, MO 64015 US",39.0294006,-94.2719118
"2335 W Hwy 76 Branson, MO 65616 US",36.6416897,-93.2636141
"161 West Dr Cape Girardeau, MO 63703 US",37.3050757,-89.5589804
"1100 Knipp Street Columbia, MO 65203 US",38.9668994,-92.3725805
"1096 S.Highway Drive Fenton, MO 63026 US",38.5415118,-90.4675691
"2925 N Hwy 67 Florissant, MO 63033 US",38.8088619,-90.3006129
"5789 Campus Pkwy Hazelwood, MO 63042 US",38.7726025,-90.391404
"2500 Sm 291 Hwy Independence, MO 64055 US",39.0746612,-94.3798206
"3939 S Noland Independence, MO 64055 US",39.0489047,-94.4145564
"11570 Hwy Ff Joplin, MO 64804 US",37.0559879,-94.4295376
"3602 Range Line Road Joplin, MO 64801 US",37.1226334,-94.4756639
"1600 Broadway Blvd. Kansas City, MO 64108 US",39.0952297,-94.58892534
"3832 Blue Ridge Cutoff Kansas City, MO 64133 US",39.034125,-94.478427
"6887 E Front St Kansas City, MO 64120 US",39.1302387,-94.5014007
"3294 Gold Rd Kingdom City, MO 65262 US",38.9412693,-91.9410689
"1300 Lake St Louis Blvd Lake St Louis, MO 63367 US",38.7688634,-90.8007475
"1320 S Jefferson Ave Lebanon, MO 65536 US",37.6730536,-92.6540463
"12319 Dorsett Road Maryland Heights, MO 63043 US",38.7145874,-90.4446091
"703 State Hwy 80 Matthews, MO 63867 US",36.7606815,-89.5407463
"2117 Taney St N Kansas City, MO 64116 US",39.1455826,-94.5587225
"3001 Lusk Drive Neosho, MO 64850 US",36.8341123,-94.3960797
"1140 Technology Dr O'Fallon, MO 63368 US",38.7163471,-90.6946865
"21921 S. East Outer Road Peculiar, MO 64078 US",38.7229634,-94.4520922
"8810 E 350 Hwy Raytown, MO 64133 US",39.0006506,-94.4814839
"1419 Martin Springs Rd. Rolla, MO 65401 US",37.9418865,-91.793799
"2401 W Broadway Sedalia, MO 65301 US",38.7048613,-93.2550963
"4760 S Campbell Avenue Springfield, MO 65807 US",37.1276514,-93.2956656
"1423 S. 5th Street St Charles, MO 63301 US",38.7818655,-90.4865203
"4015 Frederick Blvd St Joseph, MO 64506 US",39.7774533,-94.7955318
"10575 Watson Rd St Louis, MO 63127 US",38.55608075,-90.4056729
"11266 Midland Blvd St Louis, MO 63114 US",38.7033752,-90.3597365
"1515 S Hampton Ave St Louis, MO 63139 US",38.6236699,-90.2884758
"6441 S Lindberg Blvd St Louis, MO 63123 US",38.5134072,-90.3392511
"3939 Veterans St Peters, MO 63376 US",38.7925098,-90.5662909
"231 St. Robert Blvd. St. Robert, MO 65584 US",37.8258639,-92.1582233
"825 North Loop Drive Sullivan, MO 63080 US",38.2265574,-91.159344
"1 Merlin Drive Troy, MO 63379 US",38.9861251,-90.968965
"1 Camp Branch Rd. Warrenton, MO 63383 US",38.8397106,-91.2281085
"429 E. Veterans Memorial Parkway Warrenton, MO 63383 US",38.8209199,-91.1488754
"102 Fore Drive Wayland, MO 63472 US",40.3961085,-91.5701005
"7805 150th St NW Apple Valley, MN 55124 US",44.7324384,-93.2235886
"8850 University Drive Blaine, MN 55434 US",45.1309127,-93.2655209
"4209 W. American Blvd Bloomington, MN 55437 US",44.8569798,-93.3321754
"815 E 78th St Bloomington, MN 55420 US",44.8614137,-93.2734062
"6405 James Circle N Brooklyn Center, MN 55430 US",45.0712027,-93.3052442
"12950 Aldrich Ave S Burnsville, MN 55337 US",44.764053,-93.289445
"3565 Northdale Blvd Coon Rapids, MN 55448 US",45.2053932,-93.3492955
"255 N Century Ave Maplewood, MN 55119 US",44.950247,-92.9852682
"3050 White Bear Ave Maplewood, MN 55109 US",45.0173752,-93.0197765
"2700 E Lake St Minneapolis, MN 55406 US",44.9483754,-93.24488
"38681 Tanger Dr North Branch, MN 55056 US",45.5087087,-92.9963363
"9020 Quaday Ave NE Otsego, MN 55330 US",45.2616374,-93.5605531
